facility_nm,mng_agency_nm,gugun,reference_date,lat,lng,instt_code,last_load_dttm
 HF보금자리어린이집,,,,부산 남구 문현금융로 40 문현국제금융센터 201호,,,
 온종합병원장례식장,부산광역시 부산진구청,부산진구,2023-01-11,35.1578057,129.0499681,,2023-07-01 5:30
 의료법인 청십자의료재단 행복한요양병원,,,,"부산 부산진구 봉수로 18 1~7층, D동 2층",,,
 의료법인제영의료재단  다나사요양병원,부산광역시 부산진구청,부산진구,2023-01-11,35.1734165,129.0302769,,2023-07-01 5:30
(사)부산의료선교회세계로병원,부산광역시 동래구청,부산광역시 동래구,2022-12-31,35.19449667,129.0647531,,2023-07-01 5:30
(사)한국건강관리협회 건강증진의원,부산광역시 동래구청,부산광역시 동래구,2022-12-31,35.20537994,129.0765694,,2023-07-01 5:30
(의)광혜의료재단 광혜병원,부산광역시 동래구청,부산광역시 동래구,2022-12-31,35.20699644,129.0711545,,2023-07-01 5:30
(의)동영의료재단 상록병원,부산광역시 동래구청,부산광역시 동래구,2022-12-31,35.19622865,129.1048014,,2023-07-01 5:30
(의)브니엘의료재단 온요양병원,부산광역시 부산진구청,부산진구,2023-01-11,35.1578057,129.0499681,,2023-07-01 5:30
(의)브니엘의료재단 온종합병원,,,,"부산 부산진구 가야대로 721 본관 지하3~5층, 지상6~14층",,,
(의)삼세의료재단 삼세한의원,부산광역시 영도구청,부산광역시 영도구,2022-12-31,35.091945,129.039345,,2023-07-01 5:30
(의)상원의료재단부산힘찬병원,부산광역시 동래구청,부산광역시 동래구,2022-12-31,35.20148126,129.0871702,,2023-07-01 5:30
(의)상원의료재단부산힘찬병원,부산광역시 동래구청,부산광역시 동래구,2022-12-31,35.20148126,129.0871702,,2023-07-01 5:30
(의)서일의료재단 기장병원,부산광역시 기장군청,부산광역시 기장군,2023-01-01,35.2358805,129.216446,,2023-07-01 5:30
(의)영님의료재단 개금중앙요양병원,,,,"부산 부산진구 개금온정로 5 성원상떼뷰 지하1층,3층",,,
(의)영신의료재단 동래유유요양병원,부산광역시 동래구청,부산광역시 동래구,2022-12-31,35.21489891,129.077541,,2023-07-01 5:30
(의)온의료재단 신세계요양병원,부산광역시 동래구청,부산광역시 동래구,2022-12-31,35.21566372,129.0797149,,2023-07-01 5:30
(의)윤재의료재단 금강요양병원,부산광역시 동래구청,부산광역시 동래구,2022-12-31,35.21917573,129.0811015,,2023-07-01 5:30
(의)윤재의료재단금정요양병원,부산광역시 동래구청,부산광역시 동래구,2022-12-31,35.22130804,129.0805367,,2023-07-01 5:30
(의)은빛의료재단 좋은애인병원,부산광역시 동래구청,부산광역시 동래구,2022-12-31,35.19659778,129.0959337,,2023-07-01 5:30
(의)은빛의료재단 참사랑요양병원,부산광역시 동래구청,부산광역시 동래구,2022-12-31,35.20073211,129.087281,,2023-07-01 5:30
(의)장수의료재단 동래요양병원,부산광역시 동래구청,부산광역시 동래구,2022-12-31,35.20692904,129.0817626,,2023-07-01 5:30
(의)피터의료재단 새소망요양병원,부산광역시 기장군청,부산광역시 기장군,2023-01-01,35.2228206,129.2269091,,2023-07-01 5:30
(재)한국의학연구소,부산광역시 동구청,부산광역시 동구,2021-01-21,35.138705,129.063454,,2023-07-01 5:30
(재)한호기독선교회 정관일신기독병원,,,,부산 기장군 정관읍 정관6로 31,,,
(주)BYC마트,부산광역시 해운대구청,부산광역시 해운대구,2022-12-31,35.201335,129.120224,,2023-07-01 5:30
(주)농협유통 하나로클럽 부산점(대규모점포),부산광역시 북구청,부산광역시 북구,2022-12-31,35.25002418,129.0112179,,2023-07-01 5:30
(주)농협유통 하나로클럽 부산점(실내주차장),부산광역시 북구청,부산광역시 북구,2022-12-31,35.25002418,129.0112179,,2023-07-01 5:30
(주)르네시떼,부산광역시 사상구청,부산광역시 사상구,2022-12-31,35.16433608,128.9777161,,2023-07-01 5:30
(주)미래도시(경동윈츠빌),부산광역시 사상구청,부산광역시 사상구,2022-12-31,35.14940867,129.0133915,,2023-07-01 5:30
(주)베스파레포츠,,,,부산 금정구 부곡로 87,,,
(주)영해종합시장,부산광역시 사상구청,부산광역시 사상구,2022-12-31,35.1407094,128.9879641,,2023-07-01 5:30
(주)이마트 문현점,부산광역시 남구청,부산광역시 남구,2023-01-16,129.0642407,35.14430272,,2023-07-01 5:30
(주)이마트 사상점,부산광역시 사상구청,부산광역시 사상구,2022-12-31,35.16423654,128.9788887,,2023-07-01 5:30
(주)해수피아,부산광역시 연제구청,부산광역시 연제구,2022-12-31,35.19161023,129.0852596,,2023-07-01 5:30
(주)해수피아,부산광역시 연제구청,부산광역시 연제구,2022-12-31,35.19161023,129.0852596,,2023-07-01 5:30
21센츄리오피스텔,,,,부산 남구 수영로 312,,,
3 pop pc(부산대정문점),부산광역시 금정구청,부산광역시 금정구,2022-12-31,35.230974,129.088013,,2023-07-01 5:30
3POP PC,,,,부산 부산진구 서전로10번길 61 쥬디스태화신관 3층,,,
3POP PC CAFE 경성대점,,,,부산 남구 수영로 300,,,
3pop PC방,부산광역시 사상구청,부산광역시 사상구,2022-12-31,35.15047639,129.0124907,,2023-07-01 5:30
3POP PC방,,,,부산 동래구 사직북로 4 자이언츠파크 지하1층,,,
A1프라자,부산광역시 부산진구청,부산진구,2023-01-11,35.1524181,129.0596052,,2023-07-01 5:30
BHS한서병원,부산광역시 수영구청,부산광역시 수영구,2022-12-31,35.1610456,129.1128862,,2023-07-01 5:30
BH병원,부산광역시 남구청,부산광역시 남구,2023-01-16,129.0846495,35.13499942,,2023-07-01 5:30
BH효요양병원,부산광역시 서구청,부산광역시 서구,2022-12-31,35.09958485,129.020334,,2023-07-01 5:30
BIFC어린이집,,,,부산 남구 문현금융로 40 부산국제금융센터 203호,,,
BNK금정어린이집,부산광역시 금정구청,부산광역시 금정구,2022-12-31,35.236785,129.0867,,2023-07-01 5:30
BNK해운대 어린이집,부산광역시 해운대구청,부산광역시 해운대구,2022-12-31,35.201115,129.132284,,2023-07-01 5:30
BRB PC방,,,,부산 동래구 명륜로 125 5층,,,
COSTAR PC 서면본점,부산광역시 부산진구청,부산진구,2023-01-11,35.1546886,129.0582726,,2023-07-01 5:30
DGB생명빌딩,부산광역시 동구청,부산광역시 동구,2021-01-21,35.128759,129.047611,,2023-07-01 5:30
IFC부산 오슬로파크,부산광역시 남구청,부산광역시 남구,2023-01-16,129.0654779,35.14828501,,2023-07-01 5:30
KB손해보험부산빌딩,부산광역시 동구청,부산광역시 동구,2021-01-21,35.138303,129.064113,,2023-07-01 5:30
KNN타워,부산광역시 해운대구청,부산광역시 해운대구,2022-12-31,35.173952,129.18114,,2023-07-01 5:30
KORAIL부산지사 부산역,부산광역시 동구청,부산광역시 동구,2021-01-21,35.117137,129.043699,,2023-07-01 5:30
KR 단미래 어린이집,부산광역시 강서구청,강서구,2022-12-22,35.1121,128.87011,,2023-07-01 5:30
KT부산범일타워,부산광역시 동구청,부산광역시 동구,2021-01-21,35.137726,129.062509,,2023-07-01 5:30
MEGA 3POP 부산본점,,,,부산 부산진구 서전로10번길 61 3층,,,
NC 부산대점(백화점),부산광역시 금정구청,부산광역시 금정구,2022-12-31,35.232074,129.083867,,2023-07-01 5:30
NC 부산대점(실내주차장),부산광역시 금정구청,부산광역시 금정구,2022-12-31,35.232074,129.083867,,2023-07-01 5:30
OX PC 광안동점,,,,부산 수영구 광일로 22 2층,,,
OX PC 구서역점,,,,부산 금정구 중앙대로1929번길 11,,,
OX PC 용호동점,,,,부산 남구 용호로 64 지하1층,,,
OX PC방 양정점,,,,부산 부산진구 중앙대로 900 3층,,,
OX PC장산점,,,,부산 해운대구 재반로 213 3층,,,
ox화명본점,부산광역시 북구청,부산광역시 북구,2022-12-31,35.235824,129.010299,,2023-07-01 5:30
PAGODA어학원,부산광역시 부산진구청,부산진구,2023-01-11,35.1531178,129.0588504,,2023-07-01 5:30
PC COOK,,,,부산 남구 수영로 33,,,
Pc.Cook,,,,부산 남구 수영로 33,,,
PC쿠치나,,,,부산 부산진구 중앙대로 902 2층,,,
PC토랑,부산광역시 동구청,부산광역시 동구,2021-01-21,35.138929,129.061054,,2023-07-01 5:30
PC토랑,부산광역시 사상구청,부산광역시 사상구,2022-12-31,35.14113491,128.9885972,,2023-07-01 5:30
PC토랑 개금점,,,,부산 부산진구 복지로13번길 49 2층,,,
PC토랑 부산양정점,,,,부산 부산진구 양지로 6-1 4층,,,
REVEL PC방,,,,부산 수영구 수영로705번길 14,,,
SH TOWER,부산광역시 해운대구청,부산광역시 해운대구,2022-12-31,35.205697,129.124495,,2023-07-01 5:30
SK텔레콤 데이타센터,부산광역시 해운대구청,부산광역시 해운대구,2022-12-31,35.166919,129.169045,,2023-07-01 5:30
SK텔레콤㈜부암사옥  (지하1층),부산광역시 부산진구청,부산진구,2023-01-11,35.1649952,129.0507993,,2023-07-01 5:30
TOP PC SEASON 2,,,,부산 부산진구 새싹로 208,,,
W 스퀘어,부산광역시 남구청,부산광역시 남구,2023-01-16,129.1112149,35.1342266,,2023-07-01 5:30
W스퀘어,부산광역시 남구청,부산광역시 남구,2023-01-16,129.1112149,35.1342266,,2023-07-01 5:30
YBM서면어학원,부산광역시 부산진구청,부산진구,2023-01-11,35.1556623,129.0587605,,2023-07-01 5:30
YBM어학원,부산광역시 중구청,부산광역시 중구,2022-12-31,35.098853,129.035176,,2023-07-01 5:30
YMCA 어린이집,,,,부산 해운대구 아랫반송로1번길 15 반송 종합복지관,,,
가나병원,부산광역시 남구청,부산광역시 남구,2023-01-16,129.0974718,35.12239051,,2023-07-01 5:30
가나안요양병원,,,,"부산 수영구 수영로 563-1 지하1,1~10층",,,
가락타운상가시장,부산광역시 사하구청,부산광역시 사하구,2022-12-31,35.09992696,128.9584895,,2023-07-01 5:30
가람어린이집,부산광역시 서구청,부산광역시 서구,2022-12-31,35.10825151,129.0095784,,2023-07-01 5:30
가빈어린이집,부산광역시 북구청,부산광역시 북구,2022-12-31,35.21226482,129.0262186,,2023-07-01 5:30
가야교회,부산광역시 부산진구청,부산진구,2023-01-11,35.1597736,129.0581321,,2023-07-01 5:30
가야벽산상가,부산광역시 부산진구청,부산진구,2023-01-11,35.1475431,129.0251614,,2023-07-01 5:30
가야스파벨리24사우나 찜질 헬스,부산광역시 부산진구청,부산진구,2023-01-11,35.1489076,129.0304957,,2023-07-01 5:30
가야역,부산광역시 부산진구청,부산진구,2023-01-11,35.16263953,129.0505507,,2023-07-01 5:30
가족사랑요양병원,부산광역시 부산진구청,부산진구,2023-01-11,35.1815517,129.0468601,,2023-07-01 5:30
감로수요양병원,부산광역시 사상구청,부산광역시 사상구,2022-12-31,35.18166735,128.9924546,,2023-07-01 5:30
감전지하철역,부산광역시 사상구청,부산광역시 사상구,2022-12-31,35.15553546,128.9912671,,2023-07-01 5:30
감정초등학교 공영주차장,부산광역시 사하구청,부산광역시 사하구,2022-12-31,35.09685798,129.0110878,,2023-07-01 5:30
감천꿈나무어린이집,부산광역시 사하구청,부산광역시 사하구,2022-12-31,35.08961382,129.0052955,,2023-07-01 5:30
감천문화요양병원,부산광역시 사하구청,부산광역시 사하구,2022-12-31,35.08962784,128.9782736,,2023-07-01 5:30
감천참편한요양병원 ,부산광역시 사하구청,부산광역시 사하구,2022-12-31,35.10235296,128.9763857,,2023-07-01 5:30
감천파랑새어린이집,부산광역시 사하구청,부산광역시 사하구,2022-12-31,35.08996023,129.0004744,,2023-07-01 5:30
감천혜강어린이집,부산광역시 사하구청,부산광역시 사하구,2022-12-31,35.08481709,129.0065306,,2023-07-01 5:30
강동병원,부산광역시 사하구청,부산광역시 사하구,2022-12-31,35.07353126,128.9768312,,2023-07-01 5:30
강변어린이집,부산광역시 강서구청,강서구,2022-12-22,35.19837,128.92539,,2023-07-01 5:30
강서도서관,부산광역시 강서구청,강서구,2022-12-22,35.0961,128.85775,,2023-07-01 5:30
강서해수온천,부산광역시 강서구청,강서구,2022-12-22,35.11067,128.88546,,2023-07-01 5:30
개금길요양병원,,,,부산 부산진구 백양대로 252 1~7층,,,
개금역,부산광역시 부산진구청,부산진구,2023-01-11,35.16263953,129.0505507,,2023-07-01 5:30
개금천사어린이집,부산광역시 부산진구청,부산진구,2023-01-11,35.1500364,129.0178835,,2023-07-01 5:30
개원어린이집,부산광역시 부산진구청,부산진구,2023-01-11,35.1644943,129.0277604,,2023-07-01 5:30
갤러리PC,부산광역시 강서구청,강서구,2022-12-22,35.08731,128.90082,,2023-07-01 5:30
거제드림어린이집,부산광역시 연제구청,부산광역시 연제구,2022-12-31,35.18661422,129.0703486,,2023-07-01 5:30
경남.동서대학교 센텀산학캠퍼스,부산광역시 해운대구청,부산광역시 해운대구,2022-12-31,35.172169,129.174965,,2023-07-01 5:30
경동리인상가,부산광역시 서구청,부산광역시 서구,2022-12-31,35.09927166,129.024246,,2023-07-01 5:30
경희병원,부산광역시 사하구청,부산광역시 사하구,2022-12-31,35.10651664,128.9607167,,2023-07-01 5:30
경희요양병원,부산광역시 북구청,부산광역시 북구,2022-12-31,35.21266609,129.0163942,,2023-07-01 5:30
고신대학교복음병원,부산광역시 서구청,부산광역시 서구,2022-12-31,35.08107807,129.0145128,,2023-07-01 5:30
곰두리어린이집,부산광역시 연제구청,부산광역시 연제구,2022-12-31,35.19056184,129.0815454,,2023-07-01 5:30
공립구서어린이집,,,,부산 금정구 금강로 503 롯데캐슬골드 2단지내,,,
곽요양병원,부산광역시 사하구청,부산광역시 사하구,2022-12-31,35.09958407,128.9898982,,2023-07-01 5:30
관정빌딩,부산광역시 중구청,부산광역시 중구,2022-12-31,35.10926156,129.0387414,,2023-07-01 5:30
광덕자연어린이집,부산광역시 해운대구청,부산광역시 해운대구,2022-12-31,35.166816,129.143853,,2023-07-01 5:30
광복지하도상가,부산광역시 중구청,부산광역시 중구,2022-12-31,35.10201442,129.0313444,,2023-07-01 5:30
광안더힐요양병원,부산광역시 수영구청,부산광역시 수영구,2022-12-31,35.15271646,129.1158566,,2023-07-01 5:30
광안어린이집,부산광역시 수영구청,부산광역시 수영구,2022-12-31,35.16090919,129.1071219,,2023-07-01 5:30
광안역,부산광역시 수영구청,부산광역시 수영구,2022-12-31,35.15792416,129.1131729,,2023-07-01 5:30
광안자모병원,부산광역시 수영구청,부산광역시 수영구,2022-12-31,35.15533969,129.1119194,,2023-07-01 5:30
광안자모병원 산후조리원,부산광역시 수영구청,부산광역시 수영구,2022-12-31,35.15533969,129.1119194,,2023-07-01 5:30
광안정다운요양병원,,,,부산 수영구 광안해변로 292 3~6층,,,
광안참사랑요양병원,,,,부산 수영구 광안해변로 235,,,
광안해수월드,부산광역시 수영구청,부산광역시 수영구,2022-12-31,35.15587803,129.1335595,,2023-07-01 5:30
괴정병원,부산광역시 사하구청,부산광역시 사하구,2022-12-31,35.08710676,128.993421,,2023-07-01 5:30
괴정시장종합상가 (괴정시장 정비사업조합),부산광역시 사하구청,부산광역시 사하구,2022-12-31,35.10007828,128.9944889,,2023-07-01 5:30
교보리얼코㈜부산진구점,,,,부산 동구 중앙대로 176,,,
교보생명빌딩,부산광역시 중구청,부산광역시 중구,2022-12-31,35.10564162,129.0372584,,2023-07-01 5:30
구남역,부산광역시 북구청,부산광역시 북구,2022-12-31,35.19692002,128.9949993,,2023-07-01 5:30
구덕공영주차장,부산광역시 서구청,부산광역시 서구,2022-12-31,35.11750257,129.0142228,,2023-07-01 5:30
구명역,부산광역시 북구청,부산광역시 북구,2022-12-31,35.2027471,128.9995029,,2023-07-01 5:30
구서오시게시장,부산광역시 금정구청,부산광역시 금정구,2022-12-31,35.2473642,129.08975,,2023-07-01 5:30
구포부민병원,부산광역시 북구청,부산광역시 북구,2022-12-31,35.19832075,128.9905466,,2023-07-01 5:30
구포성심병원,부산광역시 북구청,부산광역시 북구,2022-12-31,35.20967278,129.0045732,,2023-07-01 5:30
구포일심요양병원,부산광역시 북구청,부산광역시 북구,2022-12-31,35.20463813,128.9955156,,2023-07-01 5:30
국립해양박물관,부산광역시 영도구청,부산광역시 영도구,2022-12-31,35.07856342,129.0802449,,2023-07-01 5:30
국민건강보험공단부산지역본부,부산광역시 북구청,부산광역시 북구,2022-12-31,35.20967612,129.0095508,,2023-07-01 5:30
국민연금관리공단 부산지사,부산광역시 연제구청,부산광역시 연제구,2022-12-31,35.17785982,129.0756461,,2023-07-01 5:30
국제백양상가,,,,부산 부산진구 백양관문로 104-1,,,
국제시장,부산광역시 중구청,부산광역시 중구,2022-12-31,35.10153748,129.0280698,,2023-07-01 5:30
국제지하도상가,부산광역시 중구청,부산광역시 중구,2022-12-31,35.10065718,129.0277077,,2023-07-01 5:30
굿모닝성모안과의원,,,,부산 부산진구 새싹로 2 KB국민은행빌딩 5층,,,
굿윌치과병원,부산광역시 북구청,부산광역시 북구,2022-12-31,35.2124938,129.0047634,,2023-07-01 5:30
그랜드자연요양병원,부산광역시 남구청,부산광역시 남구,2023-01-16,129.0977891,35.14681537,,2023-07-01 5:30
그랜드조선부산,부산광역시 해운대구청,부산광역시 해운대구,2022-12-31,35.168895,129.129747,,2023-07-01 5:30
그림동산어린이집,부산광역시 금정구청,부산광역시 금정구,2022-12-31,35.271833,129.091417,,2023-07-01 5:30
글로벌새싹어린이집,부산광역시 강서구청,강서구,2022-12-22,35.14072,128.94731,,2023-07-01 5:30
글로벌어린이집,부산광역시 남구청,부산광역시 남구,2023-01-16,129.1077413,35.12647943,,2023-07-01 5:30
금강스파,부산광역시 중구청,부산광역시 중구,2022-12-31,35.10217892,129.0247105,,2023-07-01 5:30
금강핼씨랜드,부산광역시 부산진구청,부산진구,2023-01-11,35.1687662,129.0355619,,2023-07-01 5:30
금련산역,부산광역시 수영구청,부산광역시 수영구,2022-12-31,35.14974192,129.1109542,,2023-07-01 5:30
금사역(4호선),부산광역시 금정구청,부산광역시 금정구,2022-12-31,35.215814,129.11515,,2023-07-01 5:30
금샘어린이집,부산광역시 금정구청,부산광역시 금정구,2022-12-31,35.271284,129.085824,,2023-07-01 5:30
금송요양병원,,,,"부산 연제구 중앙대로 1078 뉴그랜드오피스텔 4,5층",,,
금정구청어린이집,부산광역시 금정구청,부산광역시 금정구,2022-12-31,35.242843,129.092203,,2023-07-01 5:30
금정노인요양원,부산광역시 금정구청,부산광역시 금정구,2022-12-31,35.277653,129.089029,,2023-07-01 5:30
금정도서관,부산광역시 금정구청,부산광역시 금정구,2022-12-31,35.2726,129.096188,,2023-07-01 5:30
금정문화회관(실내주차장),부산광역시 금정구청,부산광역시 금정구,2022-12-31,35.245908,129.094404,,2023-07-01 5:30
금정산뉴웰시티어린이집,부산광역시 북구청,부산광역시 북구,2022-12-31,35.216009,129.036579,,2023-07-01 5:30
금정형주요양병원,부산광역시 금정구청,부산광역시 금정구,2022-12-31,35.264208,129.088857,,2023-07-01 5:30
금호그랜드타운 (상가),부산광역시 부산진구청,부산진구,2023-01-11,35.1563694,129.0416609,,2023-07-01 5:30
기쁜소식어린이집,부산광역시 사하구청,부산광역시 사하구,2022-12-31,35.0687724,128.9789891,,2023-07-01 5:30
기술신용보증기금,부산광역시 남구청,부산광역시 남구,2023-01-16,129.0641651,35.14607914,,2023-07-01 5:30
기장군 보건소,부산광역시 기장군청,부산광역시 기장군,2023-01-01,35.2435223,129.2229656,,2023-07-01 5:30
기장노인의료센터,부산광역시 기장군청,부산광역시 기장군,2023-01-01,35.2870535,129.2278269,,2023-07-01 5:30
기장시장,부산광역시 기장군청,부산광역시 기장군,2023-01-01,35.2435205,129.2150933,,2023-07-01 5:30
기장실버타운,부산광역시 기장군청,부산광역시 기장군,2023-01-01,35.2451777,129.2414206,,2023-07-01 5:30
기장실버홈,부산광역시 기장군청,부산광역시 기장군,2023-01-01,35.3150612,129.1699143,,2023-07-01 5:30
기장연세요양병원,부산광역시 기장군청,부산광역시 기장군,2023-01-01,35.2507263,129.2178336,,2023-07-01 5:30
기장웨이브리즈어린이집,부산광역시 기장군청,부산광역시 기장군,2023-01-01,35.2329777,129.2219036,,2023-07-01 5:30
긱스타 PC방 동아대점,,,,부산 사하구 낙동대로 548 지하1층,,,
긱스타 PC카페,,,,서울 동대문구 경희대로1길 8-6,,,
김해공항 국내선 여객터미널,부산광역시 강서구청,강서구,2022-12-22,35.0901,128.85393,,2023-07-01 5:30
김해공항 국제선 여객터미널,부산광역시 강서구청,강서구,2022-12-22,35.08278,128.90325,,2023-07-01 5:30
까르띠움 오피스텔,부산광역시 해운대구청,부산광역시 해운대구,2022-12-31,35.162791,129.16258,,2023-07-01 5:30
꼬마대통령어린이집,부산광역시 북구청,부산광역시 북구,2022-12-31,35.24112888,129.020846,,2023-07-01 5:30
꾸미랑어린이집,부산광역시 금정구청,부산광역시 금정구,2022-12-31,35.224768,129.089463,,2023-07-01 5:30
꿈꾸는 PC n COOK,,,,부산 부산진구 신천대로62번길 77,,,
꿈동산어린이집,부산광역시 북구청,부산광역시 북구,2022-12-31,35.20971272,129.0439372,,2023-07-01 5:30
꿈사랑어린이집,부산광역시 금정구청,부산광역시 금정구,2022-12-31,35.218868,129.10441,,2023-07-01 5:30
나눔의료재단 행림요양병원,부산광역시 금정구청,부산광역시 금정구,2022-12-31,35.249949,129.090773,,2023-07-01 5:30
나라키움부산통합청사,부산광역시 연제구청,부산광역시 연제구,2022-12-31,35.1871202,129.0732649,,2023-07-01 5:30
나르샤병원,부산광역시 동래구청,부산광역시 동래구,2022-12-31,35.21906324,129.0846039,,2023-07-01 5:30
나무야어린이집,부산광역시 금정구청,부산광역시 금정구,2022-12-31,35.25774,129.085022,,2023-07-01 5:30
낙민역,부산광역시 동래구청,부산광역시 동래구,2022-12-31,35.20367126,129.0872104,,2023-07-01 5:30
남구청 실내주차장,부산광역시 남구청,부산광역시 남구,2023-01-16,129.0841098,35.13650057,,2023-07-01 5:30
남부교육지원청,부산광역시 남구청,부산광역시 남구,2023-01-16,129.085455,35.13616401,,2023-07-01 5:30
남산(농수산)시장,부산광역시 금정구청,부산광역시 금정구,2022-12-31,35.269901,129.089247,,2023-07-01 5:30
남산역(1호선),부산광역시 금정구청,부산광역시 금정구,2022-12-31,35.265412,129.092499,,2023-07-01 5:30
남산정역,부산광역시 북구청,부산광역시 북구,2022-12-31,35.21333008,129.0241559,,2023-07-01 5:30
남산정요양병원,부산광역시 북구청,부산광역시 북구,2022-12-31,35.21306473,129.0219594,,2023-07-01 5:30
남천사랑의요양병원,부산광역시 수영구청,부산광역시 수영구,2022-12-31,35.14643957,129.1103276,,2023-07-01 5:30
남천어린이집,부산광역시 수영구청,부산광역시 수영구,2022-12-31,35.14120818,129.1097078,,2023-07-01 5:30
남천역,부산광역시 수영구청,부산광역시 수영구,2022-12-31,35.14246971,129.1087702,,2023-07-01 5:30
남포동역,부산광역시 중구청,부산광역시 중구,2022-12-31,35.09800501,129.034299,,2023-07-01 5:30
남포지하도상가,부산광역시 중구청,부산광역시 중구,2022-12-31,35.10201442,129.0313444,,2023-07-01 5:30
남해해양경비안전본부 어린이집,부산광역시 영도구청,부산광역시 영도구,2022-12-31,35.08228453,129.0773279,,2023-07-01 5:30
내원어린이집,부산광역시 사하구청,부산광역시 사하구,2022-12-31,35.05122843,128.9635537,,2023-07-01 5:30
냉정온천사우나 찜질방 스포츠,부산광역시 사상구청,부산광역시 사상구,2022-12-31,35.15102117,129.0145599,,2023-07-01 5:30
냉정지하철역,부산광역시 사상구청,부산광역시 사상구,2022-12-31,35.15126769,129.0125241,,2023-07-01 5:30
네오스파,부산광역시 부산진구청,부산진구,2023-01-11,35.1537268,129.0540325,,2023-07-01 5:30
네오스포,부산광역시 부산진구청,부산진구,2023-01-11,35.1537268,129.0540325,,2023-07-01 5:30
네오스포,부산광역시 부산진구청,부산진구,2023-01-11,35.1537268,129.0540325,,2023-07-01 5:30
노벨어린이집,부산광역시 북구청,부산광역시 북구,2022-12-31,35.2122956,129.0268019,,2023-07-01 5:30
노블레스요양병원,부산광역시 동래구청,부산광역시 동래구,2022-12-31,35.19667485,129.1062789,,2023-07-01 5:30
노인건강센터,부산광역시 사상구청,부산광역시 사상구,2022-12-31,35.13120987,128.9963834,,2023-07-01 5:30
노인요양시설효림원,부산광역시 부산진구청,부산진구,2023-01-11,35.1534693,129.0741171,,2023-07-01 5:30
노틀담어린이집,부산광역시 중구청,부산광역시 중구,2022-12-31,35.10578162,129.0282438,,2023-07-01 5:30
녹산산단바른어린이집,부산광역시 강서구청,강서구,2022-12-22,35.08866,128.89892,,2023-07-01 5:30
놀PC,부산광역시 부산진구청,부산진구,2023-01-11,35.1535716,129.0597376,,2023-07-01 5:30
농협하나로클럽 부전점,부산광역시 부산진구청,부산진구,2023-01-11,35.1627187,129.0624368,,2023-07-01 5:30
농협하나로클럽 부전점,부산광역시 부산진구청,부산진구,2023-01-11,35.1627187,129.0624368,,2023-07-01 5:30
누리엔,부산광역시 부산진구청,부산진구,2023-01-11,35.1417451,129.061215,,2023-07-01 5:30
누리엔,부산광역시 부산진구청,부산진구,2023-01-11,35.1417451,129.061215,,2023-07-01 5:30
눌원빌딩,부산광역시 동구청,부산광역시 동구,2021-01-21,35.136702,129.065061,,2023-07-01 5:30
뉴본산후조리원,부산광역시 사하구청,부산광역시 사하구,2022-12-31,35.09988705,128.9914265,,2023-07-01 5:30
뉴본여성의원,,,,"부산 사하구 낙동대로 234 조일빌딩 2~7,10층",,,
뉴코아 덕천점(대규모점포),부산광역시 북구청,부산광역시 북구,2022-12-31,35.21110749,129.007593,,2023-07-01 5:30
뉴코아 덕천점(실내주차장),부산광역시 북구청,부산광역시 북구,2022-12-31,35.21110749,129.007593,,2023-07-01 5:30
뉴코아아울렛 괴정점,부산광역시 사하구청,부산광역시 사하구,2022-12-31,35.09903752,128.9938949,,2023-07-01 5:30
뉴코아아울렛 괴정점실내주차장,부산광역시 사하구청,부산광역시 사하구,2022-12-31,35.09903752,128.9938949,,2023-07-01 5:30
늘봄실버요양센터,부산광역시 동래구청,부산광역시 동래구,2022-12-31,35.21326922,129.0983767,,2023-07-01 5:30
늘사랑요양병원,부산광역시 사하구청,부산광역시 사하구,2022-12-31,35.0685972,128.9772437,,2023-07-01 5:30
늘푸른노인전문요양센터,부산광역시 사하구청,부산광역시 사하구,2022-12-31,35.10051666,128.9926954,,2023-07-01 5:30
늘행복요양병원,부산광역시 사상구청,부산광역시 사상구,2022-12-31,35.12810385,128.9736904,,2023-07-01 5:30
다누리센터 공영부설주차장,부산광역시 사상구청,부산광역시 사상구,2022-12-31,35.14738137,128.995023,,2023-07-01 5:30
다누림어린이집,,,,부산 사상구 가야대로196번길 51,,,
다대도서관,부산광역시 사하구청,부산광역시 사하구,2022-12-31,35.05042627,128.9646733,,2023-07-01 5:30
다대수병원,부산광역시 사하구청,부산광역시 사하구,2022-12-31,35.09939255,128.9835344,,2023-07-01 5:30
다대씨파크 대규모점포,부산광역시 사하구청,부산광역시 사하구,2022-12-31,35.05514541,128.9719748,,2023-07-01 5:30
다대씨-파크 실내주차장,부산광역시 사하구청,부산광역시 사하구,2022-12-31,35.05514541,128.9719748,,2023-07-01 5:30
다대자연병원,부산광역시 사하구청,부산광역시 사하구,2022-12-31,35.10080887,128.9933351,,2023-07-01 5:30
다대자연병원 장례식장,부산광역시 사하구청,부산광역시 사하구,2022-12-31,35.0685972,128.9772437,,2023-07-01 5:30
다대포어린이집,부산광역시 사하구청,부산광역시 사하구,2022-12-31,35.05867068,128.9673795,,2023-07-01 5:30
다보네가구,부산광역시 남구청,부산광역시 남구,2023-01-16,129.1134178,35.10826427,,2023-07-01 5:30
다사랑어린이집,부산광역시 부산진구청,부산진구,2023-01-11,35.1676153,129.0336483,,2023-07-01 5:30
다사랑요양병원,부산광역시 북구청,부산광역시 북구,2022-12-31,35.20913783,129.0407461,,2023-07-01 5:30
다솔 어린이집,부산광역시 해운대구청,부산광역시 해운대구,2022-12-31,35.17076,129.177073,,2023-07-01 5:30
다솜어린이집,부산광역시 영도구청,부산광역시 영도구,2022-12-31,35.07599781,129.0655237,,2023-07-01 5:30
다송어린이집,부산광역시 사하구청,부산광역시 사하구,2022-12-31,35.06376481,128.9818016,,2023-07-01 5:30
다시봄요양병원,부산광역시 해운대구청,부산광역시 해운대구,2022-12-31,35.165689,129.134636,,2023-07-01 5:30
다온요양병원,부산광역시 수영구청,부산광역시 수영구,2022-12-31,35.14601118,129.1069088,,2023-07-01 5:30
다을 어린이집,부산광역시 해운대구청,부산광역시 해운대구,2022-12-31,35.162699,129.157357,,2023-07-01 5:30
다인 로얄팰리스,부산광역시 부산진구청,부산진구,2023-01-11,35.1496586,129.0582975,,2023-07-01 5:30
다인요양원,부산광역시 기장군청,부산광역시 기장군,2023-01-01,35.3434227,129.2768166,,2023-07-01 5:30
다정한어린이집,부산광역시 사하구청,부산광역시 사하구,2022-12-31,35.06274344,128.985473,,2023-07-01 5:30
단골병원,,,,"부산 금정구 중앙대로 1829 5~10,14층",,,
달맞이요양병원,부산광역시 해운대구청,부산광역시 해운대구,2022-12-31,35.168903,129.129747,,2023-07-01 5:30
당리하이스트 학원,,,,부산 사하구 낙동대로 412,,,
대동병원,부산광역시 동래구청,부산광역시 동래구,2022-12-31,35.20472496,129.0802727,,2023-07-01 5:30
대동병원,부산광역시 동래구청,부산광역시 동래구,2022-12-31,35.20472496,129.0802727,,2023-07-01 5:30
대림아크로텔,부산광역시 해운대구청,부산광역시 해운대구,2022-12-31,35.163185,129.177824,,2023-07-01 5:30
대림찜질사우나,부산광역시 남구청,부산광역시 남구,2023-01-16,129.0704996,35.13621609,,2023-07-01 5:30
대붕빌딩,부산광역시 동래구청,부산광역시 동래구,2022-12-31,35.20136967,129.0835337,,2023-07-01 5:30
대성학원,,,,부산 연제구 거제대로252번길 20,,,
대신시장,부산광역시 서구청,부산광역시 서구,2022-12-31,35.1103293,129.0197017,,2023-07-01 5:30
대신증권(주) 동래사옥,부산광역시 동래구청,부산광역시 동래구,2022-12-31,35.20206448,129.0824448,,2023-07-01 5:30
대양어린이집,부산광역시 연제구청,부산광역시 연제구,2022-12-31,35.18836804,129.1058477,,2023-07-01 5:30
대연성모병원,부산광역시 남구청,부산광역시 남구,2023-01-16,129.0986505,35.14803344,,2023-07-01 5:30
대연어린이집,부산광역시 남구청,부산광역시 남구,2023-01-16,129.0894125,35.12189544,,2023-07-01 5:30
대영스포렉스,부산광역시 연제구청,부산광역시 연제구,2022-12-31,35.189918,129.1068789,,2023-07-01 5:30
대영시네마타운 건물 AJ주차장 비프광장점,부산광역시 중구청,부산광역시 중구,2022-12-31,35.09860504,129.0294697,,2023-07-01 5:30
대영온천,부산광역시 남구청,부산광역시 남구,2023-01-16,129.1067896,35.13802595,,2023-07-01 5:30
대우월드마크센텀 (상가관리단),부산광역시 해운대구청,부산광역시 해운대구,2022-12-31,35.169742,129.17446,,2023-07-01 5:30
대지어린이집,부산광역시 사하구청,부산광역시 사하구,2022-12-31,35.09070593,128.9996829,,2023-07-01 5:30
대청어린이집,부산광역시 중구청,부산광역시 중구,2022-12-31,35.1103331,129.0293761,,2023-07-01 5:30
대하가족 건강랜드,부산광역시 해운대구청,부산광역시 해운대구,2022-12-31,35.164511,129.162399,,2023-07-01 5:30
대한예수교장로회수영로교회,부산광역시 해운대구청,부산광역시 해운대구,2022-12-31,35.168285,129.14036,,2023-07-01 5:30
대한예수교장로회수영로교회 교육관,부산광역시 해운대구청,부산광역시 해운대구,2022-12-31,35.168291,129.177791,,2023-07-01 5:30
대한예수교장로회오산교회,부산광역시 해운대구청,부산광역시 해운대구,2022-12-31,35.220508,129.151124,,2023-07-01 5:30
대한통운빌딩(예광빌딩),부산광역시 동구청,부산광역시 동구,2021-01-21,35.113045,129.039126,,2023-07-01 5:30
더락PC카페,,,,부산 동래구 안남로 108,,,
더락PC카페 ,,,,부산 동래구 안남로 108,,,
더락PC카페 덕천점,부산광역시 북구청,부산광역시 북구,2022-12-31,35.21066138,129.0084802,,2023-07-01 5:30
더몽 PC 신평점,,,,부산 사하구 하신중앙로 176 6층,,,
더몽PC사상역점,,,,부산 사상구 사상로202번길 16,,,
더미즈웰산부인과,부산광역시 북구청,부산광역시 북구,2022-12-31,35.23362967,129.0139899,,2023-07-01 5:30
더블루 오피스텔,부산광역시 부산진구청,부산진구,2023-01-11,35.1517723,129.0636631,,2023-07-01 5:30
더블루2,부산광역시 부산진구청,부산진구,2023-01-11,35.1547108,129.0639316,,2023-07-01 5:30
더샵센트럴스퀘어,부산광역시 부산진구청,부산진구,2023-01-11,35.1514547,129.0611259,,2023-07-01 5:30
더샵파크시티어린이집,,,,부산 연제구 안연로 33 더샵파크시티아파트 106동,,,
더웰타워,부산광역시 연제구청,부산광역시 연제구,2022-12-31,35.18522302,129.0818368,,2023-07-01 5:30
덕양어린이집,부산광역시 북구청,부산광역시 북구,2022-12-31,35.21019649,129.0225538,,2023-07-01 5:30
덕천3동 공영주차장,부산광역시 북구청,부산광역시 북구,2022-12-31,35.2105403,129.0181319,,2023-07-01 5:30
덕천역(2호선),부산광역시 북구청,부산광역시 북구,2022-12-31,35.21054366,129.0053842,,2023-07-01 5:30
덕천역(3호선),부산광역시 북구청,부산광역시 북구,2022-12-31,35.21054366,129.0053842,,2023-07-01 5:30
덕천요양병원,부산광역시 북구청,부산광역시 북구,2022-12-31,35.21118163,129.005469,,2023-07-01 5:30
덕천지하상가 태아쇼핑,부산광역시 북구청,부산광역시 북구,2022-12-31,35.21119962,129.0096762,,2023-07-01 5:30
덕천지하주차장,부산광역시 북구청,부산광역시 북구,2022-12-31,35.21054366,129.0053842,,2023-07-01 5:30
덕포지하철역,부산광역시 사상구청,부산광역시 사상구,2022-12-31,35.17395226,128.9839685,,2023-07-01 5:30
도산어린이집,부산광역시 수영구청,부산광역시 수영구,2022-12-31,35.16143495,129.1205091,,2023-07-01 5:30
동구청,부산광역시 동구청,부산광역시 동구,2021-01-21,35.129396,129.045434,,2023-07-01 5:30
동남권원자력의학원,부산광역시 기장군청,부산광역시 기장군,2023-01-01,35.3214832,129.243613,,2023-07-01 5:30
동남권원자력의학원,부산광역시 기장군청,부산광역시 기장군,2023-01-01,35.3214832,129.243613,,2023-07-01 5:30
동남권원자력의학원,부산광역시 기장군청,부산광역시 기장군,2023-01-01,35.3214832,129.243613,,2023-07-01 5:30
동래 SK뷰 3차 어린이집,부산광역시 동래구청,부산광역시 동래구,2022-12-31,35.21640198,129.0798125,,2023-07-01 5:30
동래나눔과행복병원,,,,부산 연제구 중앙대로 1239,,,
동래노인요양원,부산광역시 금정구청,부산광역시 금정구,2022-12-31,35.231712,129.076109,,2023-07-01 5:30
동래병원,부산광역시 금정구청,부산광역시 금정구,2022-12-31,35.294557,129.111873,,2023-07-01 5:30
동래봉생병원,부산광역시 동래구청,부산광역시 동래구,2022-12-31,35.19691163,129.0961136,,2023-07-01 5:30
동래성모병원,부산광역시 동래구청,부산광역시 동래구,2022-12-31,35.20326558,129.0801765,,2023-07-01 5:30
동래시장,부산광역시 동래구청,부산광역시 동래구,2022-12-31,35.20380888,129.0859383,,2023-07-01 5:30
동래아동병원,부산광역시 동래구청,부산광역시 동래구,2022-12-31,35.19704569,129.1002114,,2023-07-01 5:30
동래역,부산광역시 동래구청,부산광역시 동래구,2022-12-31,35.20367126,129.0872104,,2023-07-01 5:30
동래우리들병원,부산광역시 동래구청,부산광역시 동래구,2022-12-31,35.19993746,129.090444,,2023-07-01 5:30
동백 어린이집,부산광역시 해운대구청,부산광역시 해운대구,2022-12-31,35.194625,129.206906,,2023-07-01 5:30
동백섬마리나 클럽하우스,부산광역시 해운대구청,부산광역시 해운대구,2022-12-31,35.185508,129.125383,,2023-07-01 5:30
동백어린이집,부산광역시 사하구청,부산광역시 사하구,2022-12-31,35.05025013,128.965285,,2023-07-01 5:30
동백역,부산광역시 해운대구청,부산광역시 해운대구,2022-12-31,35.16919,129.174625,,2023-07-01 5:30
동부산우체국,부산광역시 동구청,부산광역시 동구,2021-01-21,35.138261,129.062325,,2023-07-01 5:30
동산병원 장례식장,부산광역시 사하구청,부산광역시 사하구,2022-12-31,35.10080887,128.9933351,,2023-07-01 5:30
동산어린이집,부산광역시 수영구청,부산광역시 수영구,2022-12-31,35.17086066,129.1129982,,2023-07-01 5:30
동산요양병원,부산광역시 사하구청,부산광역시 사하구,2022-12-31,35.05780359,128.9709759,,2023-07-01 5:30
동삼중앙어린이집,부산광역시 영도구청,부산광역시 영도구,2022-12-31,35.07939202,129.0684123,,2023-07-01 5:30
동성럭키어린이집,부산광역시 사상구청,부산광역시 사상구,2022-12-31,35.14636276,129.003731,,2023-07-01 5:30
동성어린이집,부산광역시 금정구청,부산광역시 금정구,2022-12-31,35.257328,129.0906,,2023-07-01 5:30
동성큰사랑어린이집,부산광역시 수영구청,부산광역시 수영구,2022-12-31,35.14779672,129.1097754,,2023-07-01 5:30
동아대학교 대신요양병원,부산광역시 서구청,부산광역시 서구,2022-12-31,35.12099471,129.017549,,2023-07-01 5:30
동아대학교병원,부산광역시 서구청,부산광역시 서구,2022-12-31,35.12050997,129.0187498,,2023-07-01 5:30
동아대학교병원장례식장,부산광역시 서구청,부산광역시 서구,2022-12-31,35.12050997,129.0187498,,2023-07-01 5:30
동아대학교석당박물관,부산광역시 서구청,부산광역시 서구,2022-12-31,35.10374099,129.0194146,,2023-07-01 5:30
동원역,부산광역시 북구청,부산광역시 북구,2022-12-31,35.259081,129.012797,,2023-07-01 5:30
동의대역,부산광역시 부산진구청,부산진구,2023-01-11,35.15353564,129.0327304,,2023-07-01 5:30
동의대학교부속동의어린이집,부산광역시 부산진구청,부산진구,2023-01-11,35.1459356,129.035277,,2023-07-01 5:30
동의의료원 (동의병원,,,,부산 부산진구 양정로 62,,,
동일타워,부산광역시 동구청,부산광역시 동구,2021-01-21,35.138705,129.063454,,2023-07-01 5:30
동일타워,부산광역시 동구청,부산광역시 동구,2021-01-21,35.138986,129.063733,,2023-07-01 5:30
동주대학부설어린이집,부산광역시 사하구청,부산광역시 사하구,2022-12-31,35.10420501,128.9979833,,2023-07-01 5:30
동천어린이집,부산광역시 남구청,부산광역시 남구,2023-01-16,129.0821033,35.11756218,,2023-07-01 5:30
동해 어린이집,부산광역시 해운대구청,부산광역시 해운대구,2022-12-31,35.163393,129.159548,,2023-07-01 5:30
두실공영주차장,부산광역시 금정구청,부산광역시 금정구,2022-12-31,35.253059,129.089326,,2023-07-01 5:30
두실역(1호선),부산광역시 금정구청,부산광역시 금정구,2022-12-31,35.256958,129.091381,,2023-07-01 5:30
라마다 앙코르 부산역,부산광역시 동구청,부산광역시 동구,2021-01-21,35.114309,129.040397,,2023-07-01 5:30
라마다 앙코르 해운대 호텔,부산광역시 해운대구청,부산광역시 해운대구,2022-12-31,35.165264,129.174906,,2023-07-01 5:30
라온제나어린이집,부산광역시 강서구청,강서구,2022-12-22,35.09056,128.85331,,2023-07-01 5:30
라파요양병원,부산광역시 사하구청,부산광역시 사하구,2022-12-31,35.10587267,128.9634843,,2023-07-01 5:30
래미안장전 어린이집,부산광역시 금정구청,부산광역시 금정구,2022-12-31,35.227721,129.087295,,2023-07-01 5:30
럭키동래쇼핑,부산광역시 동래구청,부산광역시 동래구,2022-12-31,35.20984297,129.0744099,,2023-07-01 5:30
럭키랜드,부산광역시 연제구청,부산광역시 연제구,2022-12-31,35.18169264,129.1034516,,2023-07-01 5:30
로뎀노인요양원,부산광역시 북구청,부산광역시 북구,2022-12-31,35.20903845,129.0111949,,2023-07-01 5:30
로떼PC카페,,,,부산 부산진구 중앙대로 694 쥬디스태화본관 4층,,,
롯데갤러리움센텀,부산광역시 해운대구청,부산광역시 해운대구,2022-12-31,35.173552,129.182194,,2023-07-01 5:30
롯데마트,부산광역시 중구청,부산광역시 중구,2022-12-31,35.09830894,129.0367048,,2023-07-01 5:30
롯데마트,부산광역시 기장군청,부산광역시 기장군,2023-01-01,35.1922105,129.2127824,,2023-07-01 5:30
롯데마트 금정점(실내주차장),부산광역시 금정구청,부산광역시 금정구,2022-12-31,35.239022,129.091721,,2023-07-01 5:30
롯데마트 동래점,부산광역시 동래구청,부산광역시 동래구,2022-12-31,35.21170859,129.0774768,,2023-07-01 5:30
롯데마트 동래점,부산광역시 동래구청,부산광역시 동래구,2022-12-31,35.21170859,129.0774768,,2023-07-01 5:30
롯데마트 사하점,부산광역시 사하구청,부산광역시 사하구,2022-12-31,35.08478117,128.9723158,,2023-07-01 5:30
롯데마트실내주차장,부산광역시 중구청,부산광역시 중구,2022-12-31,35.09830894,129.0367048,,2023-07-01 5:30
롯데몰 동부산점,부산광역시 기장군청,부산광역시 기장군,2023-01-01,35.2188193,129.2313695,,2023-07-01 5:30
롯데몰 동부산점,부산광역시 기장군청,부산광역시 기장군,2023-01-01,35.2188193,129.2313695,,2023-07-01 5:30
롯데백화점,부산광역시 부산진구청,부산진구,2023-01-11,35.1568526,129.0566466,,2023-07-01 5:30
롯데백화점 광복점,부산광역시 중구청,부산광역시 중구,2022-12-31,35.09830894,129.0367048,,2023-07-01 5:30
롯데백화점 센텀시티점,부산광역시 해운대구청,부산광역시 해운대구,2022-12-31,35.167493,129.176772,,2023-07-01 5:30
롯데백화점 센텀시티점,부산광역시 해운대구청,부산광역시 해운대구,2022-12-31,35.227007,129.146949,,2023-07-01 5:30
롯데백화점광복점 실내주차장,부산광역시 중구청,부산광역시 중구,2022-12-31,35.09830894,129.0367048,,2023-07-01 5:30
롯데부산면세점,부산광역시 부산진구청,부산진구,2023-01-11,35.1568526,129.0566466,,2023-07-01 5:30
롯데쇼핑(주)롯데마트사상점,부산광역시 사상구청,부산광역시 사상구,2022-12-31,35.12759834,128.9683583,,2023-07-01 5:30
롯데쇼핑㈜ 롯데마트사하점  실내주차장,부산광역시 사하구청,부산광역시 사하구,2022-12-31,35.08478117,128.9723158,,2023-07-01 5:30
롯데쇼핑㈜ 롯데키즈마트 부산점 (지하1층방재실),부산광역시 부산진구청,부산진구,2023-01-11,35.1631413,129.048528,,2023-07-01 5:30
롯데쇼핑㈜동래점,부산광역시 동래구청,부산광역시 동래구,2022-12-31,35.21170859,129.0774768,,2023-07-01 5:30
롯데쇼핑㈜동래점,부산광역시 동래구청,부산광역시 동래구,2022-12-31,35.21170859,129.0774768,,2023-07-01 5:30
롯데쇼핑㈜롯데마트 화명점(대규모점포),부산광역시 북구청,부산광역시 북구,2022-12-31,35.23516715,129.0130145,,2023-07-01 5:30
롯데쇼핑㈜롯데마트 화명점(실내주차장),부산광역시 북구청,부산광역시 북구,2022-12-31,35.23516715,129.0130145,,2023-07-01 5:30
롯데전문점 광복점,부산광역시 중구청,부산광역시 중구,2022-12-31,35.09830894,129.0367048,,2023-07-01 5:30
롯데캐미칼국제빌딩,부산광역시 연제구청,부산광역시 연제구,2022-12-31,35.16234619,129.0552558,,2023-07-01 5:30
르노삼성자동차 동래사업소,부산광역시 동래구청,부산광역시 동래구,2022-12-31,35.19895864,129.0840178,,2023-07-01 5:30
리마크빌 대연,부산광역시 남구청,부산광역시 남구,2023-01-16,129.1015382,35.13756007,,2023-07-01 5:30
리오라여성의원,,,,"부산 부산진구 중앙대로 736 3, 6, 7층",,,
리치웰찜질방,부산광역시 수영구청,부산광역시 수영구,2022-12-31,35.15255969,129.1152619,,2023-07-01 5:30
리치웰휘트니스덕천스파(구.프라임),부산광역시 북구청,부산광역시 북구,2022-12-31,35.21150617,129.0072234,,2023-07-01 5:30
리코스타 PC CAFE,,,,부산 중구 광복로 50 5층,,,
리틀하버드어린이집,부산광역시 기장군청,부산광역시 기장군,2023-01-01,35.3351643,129.1726745,,2023-07-01 5:30
리틀해오름어린이집,부산광역시 북구청,부산광역시 북구,2022-12-31,35.218499,129.038441,,2023-07-01 5:30
마린센타,부산광역시 중구청,부산광역시 중구,2022-12-31,35.11011648,129.0389058,,2023-07-01 5:30
마린파크,부산광역시 해운대구청,부산광역시 해운대구,2022-12-31,35.166108,129.132414,,2023-07-01 5:30
마미사랑산후조리원,,,,부산 연제구 반송로 28-1 태영메디컬빌딩 6~10층,,,
마미캠프산후조리원,부산광역시 남구청,부산광역시 남구,2023-01-16,129.0878604,35.12562314,,2023-07-01 5:30
마야어린이집,부산광역시 금정구청,부산광역시 금정구,2022-12-31,35.214575,129.11847,,2023-07-01 5:30
마트월드,부산광역시 사상구청,부산광역시 사상구,2022-12-31,35.1413743,128.9705571,,2023-07-01 5:30
마트월드,부산광역시 사상구청,부산광역시 사상구,2022-12-31,35.1413743,128.9705571,,2023-07-01 5:30
만덕1어린이집,부산광역시 북구청,부산광역시 북구,2022-12-31,35.214067,129.037929,,2023-07-01 5:30
만덕도서관,부산광역시 북구청,부산광역시 북구,2022-12-31,35.206949,129.036683,,2023-07-01 5:30
만덕역,부산광역시 북구청,부산광역시 북구,2022-12-31,35.21295684,129.0361508,,2023-07-01 5:30
만세365병원,부산광역시 중구청,부산광역시 중구,2022-12-31,35.103,129.031,,2023-07-01 5:30
맑은샘,부산광역시 북구청,부산광역시 북구,2022-12-31,35.1990708,129.0071796,,2023-07-01 5:30
맘모스프라자 (맘모스상가운영위원회),부산광역시 사하구청,부산광역시 사하구,2022-12-31,35.06147729,128.9793185,,2023-07-01 5:30
맘스웰 산후조리원,부산광역시 북구청,부산광역시 북구,2022-12-31,35.23334809,129.0141288,,2023-07-01 5:30
망미동 노외공영주차장,부산광역시 수영구청,부산광역시 수영구,2022-12-31,35.17031425,129.0968319,,2023-07-01 5:30
망미역,부산광역시 수영구청,부산광역시 수영구,2022-12-31,35.17152557,129.1083198,,2023-07-01 5:30
맥켄지일신기독병원,부산광역시 북구청,부산광역시 북구,2022-12-31,35.22098779,129.0077817,,2023-07-01 5:30
메가마트,부산광역시 수영구청,부산광역시 수영구,2022-12-31,35.13725731,129.1109928,,2023-07-01 5:30
메가마트 기장점,부산광역시 기장군청,부산광역시 기장군,2023-01-01,35.2545944,129.2220968,,2023-07-01 5:30
메가마트 동래점,부산광역시 동래구청,부산광역시 동래구,2022-12-31,35.20454596,129.081138,,2023-07-01 5:30
메가마트 동래점,부산광역시 동래구청,부산광역시 동래구,2022-12-31,35.20454596,129.081138,,2023-07-01 5:30
메가마트 실내주차장,부산광역시 수영구청,부산광역시 수영구,2022-12-31,35.13725731,129.1109928,,2023-07-01 5:30
메가박스중앙㈜,부산광역시 사상구청,부산광역시 사상구,2022-12-31,35.16314616,128.9809858,,2023-07-01 5:30
메드윌병원,부산광역시 금정구청,부산광역시 금정구,2022-12-31,35.258526,129.091051,,2023-07-01 5:30
메리놀병원,부산광역시 중구청,부산광역시 중구,2022-12-31,35.10765224,129.0329841,,2023-07-01 5:30
메리움,부산광역시 부산진구청,부산진구,2023-01-11,35.1734165,129.0302769,,2023-07-01 5:30
메리움,부산광역시 부산진구청,부산진구,2023-01-11,35.1734165,129.0302769,,2023-07-01 5:30
메인즈PC,,,,부산 남구 수영로 274-16 2층,,,
메타한방병원,,,,부산 부산진구 중앙대로 653 2~5층,,,
명은병원,부산광역시 연제구청,부산광역시 연제구,2022-12-31,35.18814435,129.0766931,,2023-07-01 5:30
명장역,부산광역시 동래구청,부산광역시 동래구,2022-12-31,35.20367126,129.0872104,,2023-07-01 5:30
명지녹산산단명지어린이집,부산광역시 강서구청,강서구,2022-12-22,35.08327,128.90394,,2023-07-01 5:30
모덕지하철역,부산광역시 사상구청,부산광역시 사상구,2022-12-31,35.1803969,128.9855634,,2023-07-01 5:30
모라지하철역,부산광역시 사상구청,부산광역시 사상구,2022-12-31,35.18964189,128.9886081,,2023-07-01 5:30
모리아영재어린이집,부산광역시 사하구청,부산광역시 사하구,2022-12-31,35.09849841,128.9980672,,2023-07-01 5:30
목화사우나,부산광역시 부산진구청,부산진구,2023-01-11,35.1587959,129.0675576,,2023-07-01 5:30
묘음예능어린이집,부산광역시 동구청,부산광역시 동구,2021-01-21,35.125042,129.035593,,2023-07-01 5:30
무역회관,부산광역시 중구청,부산광역시 중구,2022-12-31,35.10581784,129.0377323,,2023-07-01 5:30
무지개언덕노인전문요양센터,부산광역시 북구청,부산광역시 북구,2022-12-31,35.19426533,129.0086898,,2023-07-01 5:30
문현금융단지IFC부산 복합시설,부산광역시 남구청,부산광역시 남구,2023-01-16,129.0654779,35.14828501,,2023-07-01 5:30
미남동의요양병원,부산광역시 동래구청,부산광역시 동래구,2022-12-31,35.20545183,129.0674442,,2023-07-01 5:30
미남역(3호선),부산광역시 동래구청,부산광역시 동래구,2022-12-31,35.20367126,129.0872104,,2023-07-01 5:30
미남역(4호선),부산광역시 동래구청,부산광역시 동래구,2022-12-31,35.20367126,129.0872104,,2023-07-01 5:30
미래로 산후조리원,부산광역시 북구청,부산광역시 북구,2022-12-31,35.21130636,129.0044622,,2023-07-01 5:30
미래로병원,부산광역시 북구청,부산광역시 북구,2022-12-31,35.21130636,129.0044622,,2023-07-01 5:30
미래로병원(실내주차장)(동서디에스),부산광역시 북구청,부산광역시 북구,2022-12-31,35.21130636,129.0044622,,2023-07-01 5:30
미래병원,부산광역시 동래구청,부산광역시 동래구,2022-12-31,35.19771875,129.097563,,2023-07-01 5:30
미래아이산후조리원,부산광역시 사하구청,부산광역시 사하구,2022-12-31,35.10587267,128.9634843,,2023-07-01 5:30
미래아이여성병원,부산광역시 사하구청,부산광역시 사하구,2022-12-31,35.10234218,128.9631027,,2023-07-01 5:30
미래여성병원,부산광역시 부산진구청,부산진구,2023-01-11,35.1545019,129.0334678,,2023-07-01 5:30
미래여성산후조리원,,,,부산 사하구 낙동남로 1388,,,
미소요양병원,부산광역시 해운대구청,부산광역시 해운대구,2022-12-31,35.174147,129.173258,,2023-07-01 5:30
민락역,부산광역시 수영구청,부산광역시 수영구,2022-12-31,35.16706286,129.1221012,,2023-07-01 5:30
바다빛어린이집,부산광역시 수영구청,부산광역시 수영구,2022-12-31,35.15555536,129.1266075,,2023-07-01 5:30
바른길병원,부산광역시 해운대구청,부산광역시 해운대구,2022-12-31,35.174025,129.128418,,2023-07-01 5:30
바른병원,부산광역시 서구청,부산광역시 서구,2022-12-31,35.09764393,129.0249052,,2023-07-01 5:30
바벨PC 시즌2,부산광역시 금정구청,부산광역시 금정구,2022-12-31,35.258242,129.0863,,2023-07-01 5:30
바운스트램폴린파크 W아파트점,부산광역시 남구청,부산광역시 남구,2023-01-16,129.1112149,35.1342266,,2023-07-01 5:30
박원욱병원,,,,"부산 수영구 광안로 4 광안SK뷰 상가 지하1층, 5~8층",,,
반석노인건강센터,부산광역시 기장군청,부산광역시 기장군,2023-01-01,35.3795114,129.2602275,,2023-07-01 5:30
반여3동어린이집,부산광역시 해운대구청,부산광역시 해운대구,2022-12-31,35.26273,129.14512,,2023-07-01 5:30
반여농산물시장역 (4호선),부산광역시 해운대구청,부산광역시 해운대구,2022-12-31,35.16016,129.164679,,2023-07-01 5:30
발리24시대중사우나,부산광역시 연제구청,부산광역시 연제구,2022-12-31,35.18699818,129.079884,,2023-07-01 5:30
발리아쿠아랜드,부산광역시 동구청,부산광역시 동구,2021-01-21,35.11554,129.038024,,2023-07-01 5:30
밝은눈안과병원,부산광역시 부산진구청,부산진구,2023-01-11,35.157949,129.0513277,,2023-07-01 5:30
밝은마음병원,,,,부산 해운대구 해운대로 575 국제빌딩 2~5층,,,
밝은세상안과의원,부산광역시 부산진구청,부산진구,2023-01-11,35.1570047,129.0582203,,2023-07-01 5:30
백산어린이집,부산광역시 부산진구청,부산진구,2023-01-11,35.1662832,129.0333076,,2023-07-01 5:30
백양산한가족스포츠센터,부산광역시 부산진구청,부산진구,2023-01-11,35.1731808,129.0300082,,2023-07-01 5:30
백양산한가족스포츠센터,부산광역시 부산진구청,부산진구,2023-01-11,35.1731808,129.0300082,,2023-07-01 5:30
백조어린이집,부산광역시 해운대구청,부산광역시 해운대구,2022-12-31,35.163603,129.184465,,2023-07-01 5:30
범내골역,부산광역시 부산진구청,부산진구,2023-01-11,35.14726038,129.0600102,,2023-07-01 5:30
범내골역 한라비발디 STUDIO 422,,,,부산 부산진구 범천로 22,,,
범어사역(1호선),부산광역시 금정구청,부산광역시 금정구,2022-12-31,35.27272,129.092678,,2023-07-01 5:30
범일초등학교지하주차장,부산광역시 동구청,부산광역시 동구,2021-01-21,35.139232,129.050016,,2023-07-01 5:30
베스트웨스턴 해운대호텔,부산광역시 해운대구청,부산광역시 해운대구,2022-12-31,35.175683,129.131237,,2023-07-01 5:30
베스티안부산병원,부산광역시 북구청,부산광역시 북구,2022-12-31,35.23558347,129.0086179,,2023-07-01 5:30
벡스코,부산광역시 해운대구청,부산광역시 해운대구,2022-12-31,35.160412,129.166587,,2023-07-01 5:30
벡스코,부산광역시 해운대구청,부산광역시 해운대구,2022-12-31,35.166575,129.168961,,2023-07-01 5:30
벡스코,부산광역시 해운대구청,부산광역시 해운대구,2022-12-31,35.174485,129.12779,,2023-07-01 5:30
벡스코,부산광역시 해운대구청,부산광역시 해운대구,2022-12-31,35.201276,129.120017,,2023-07-01 5:30
벡스코역 (시립미술관),부산광역시 해운대구청,부산광역시 해운대구,2022-12-31,35.15982,129.157929,,2023-07-01 5:30
벽산e오렌지프라자,부산광역시 해운대구청,부산광역시 해운대구,2022-12-31,35.16425,129.185122,,2023-07-01 5:30
벽산이센텀클래스원2차,부산광역시 해운대구청,부산광역시 해운대구,2022-12-31,35.166835,129.132473,,2023-07-01 5:30
보림프라자 상가,부산광역시 동래구청,부산광역시 동래구,2022-12-31,35.19464285,129.0948203,,2023-07-01 5:30
보수종합상가,부산광역시 중구청,부산광역시 중구,2022-12-31,35.1041504,129.0218176,,2023-07-01 5:30
보엠어린이집,부산광역시 연제구청,부산광역시 연제구,2022-12-31,35.18651898,129.0870913,,2023-07-01 5:30
보현어린이집,,,,부산 부산진구 백양관문로77번길 140 개금종합사회복지관 2층,,,
복천박물관,부산광역시 동래구청,부산광역시 동래구,2022-12-31,35.2073797,129.0917956,,2023-07-01 5:30
봄뜰어린이집,부산광역시 기장군청,부산광역시 기장군,2023-01-01,35.3357294,129.1791946,,2023-07-01 5:30
봉생병원,부산광역시 동구청,부산광역시 동구,2021-01-21,35.130996,129.050396,,2023-07-01 5:30
부경대학교어린이집,,,,부산 남구 용소로 45 C14동,,,
부곡어린이집,부산광역시 금정구청,부산광역시 금정구,2022-12-31,35.226603,129.096034,,2023-07-01 5:30
부곡요양병원,부산광역시 금정구청,부산광역시 금정구,2022-12-31,35.221075,129.089559,,2023-07-01 5:30
부민교회어린이집,부산광역시 서구청,부산광역시 서구,2022-12-31,35.10296808,129.019088,,2023-07-01 5:30
부민병원,부산광역시 북구청,부산광역시 북구,2022-12-31,35.21196445,129.011216,,2023-07-01 5:30
부산 범일 로얄팰리스 2차,,,,부산 부산진구 범일로 176,,,
부산 파이낸스 센터,,,,부산 부산진구 중앙대로 708,,,
부산YMCA,부산광역시 동구청,부산광역시 동구,2021-01-21,35.125332,129.044844,,2023-07-01 5:30
부산YWCA부설어린이집,부산광역시 사하구청,부산광역시 사하구,2022-12-31,35.07572341,128.9810788,,2023-07-01 5:30
부산검찰어린이집,부산광역시 연제구청,부산광역시 연제구,2022-12-31,35.19120606,129.0719571,,2023-07-01 5:30
부산경찰청어린이집,부산광역시 동래구청,부산광역시 동래구,2022-12-31,35.19585742,129.0534715,,2023-07-01 5:30
부산고려병원,부산광역시 남구청,부산광역시 남구,2023-01-16,129.0926034,35.13490083,,2023-07-01 5:30
부산광역시 사상구 보건소,부산광역시 사상구청,부산광역시 사상구,2022-12-31,35.15255072,128.9914561,,2023-07-01 5:30
부산광역시 상수도사업본부,부산광역시 부산진구청,부산진구,2023-01-11,35.2633454,129.0954903,,2023-07-01 5:30
부산광역시남구도서관,부산광역시 남구청,부산광역시 남구,2023-01-16,129.0945721,35.13769539,,2023-07-01 5:30
부산광역시립 시민도서관,부산광역시 부산진구청,부산진구,2023-01-11,35.1832775,129.0500255,,2023-07-01 5:30
부산광역시립구포도서관,부산광역시 북구청,부산광역시 북구,2022-12-31,35.1939786,128.9960109,,2023-07-01 5:30
부산광역시부산의료원,부산광역시 연제구청,부산광역시 연제구,2022-12-31,35.18741703,129.0600491,,2023-07-01 5:30
부산광역시청(경찰청포함),부산광역시 연제구청,부산광역시 연제구,2022-12-31,35.17992893,129.0750915,,2023-07-01 5:30
부산광역시청어린이집,부산광역시 부산진구청,부산진구,2023-01-11,35.1792026,129.0727996,,2023-07-01 5:30
부산광역시한솔어린이집,부산광역시 사상구청,부산광역시 사상구,2022-12-31,35.1809114,128.9852433,,2023-07-01 5:30
부산교통공사 휴메트로어린이집,부산광역시 부산진구청,부산진구,2023-01-11,35.1497389,129.0605648,,2023-07-01 5:30
부산국제금융센터 실내주차장,부산광역시 남구청,부산광역시 남구,2023-01-16,129.0658605,35.14648787,,2023-07-01 5:30
부산근로복지공단어린이집,부산광역시 사상구청,부산광역시 사상구,2022-12-31,35.167432,128.9816344,,2023-07-01 5:30
부산노인전문 제3병원,부산광역시 해운대구청,부산광역시 해운대구,2022-12-31,35.230103,129.155413,,2023-07-01 5:30
부산노인전문 제4병원,부산광역시 사하구청,부산광역시 사하구,2022-12-31,35.10503547,128.9689918,,2023-07-01 5:30
부산노인전문제1병원,부산광역시 북구청,부산광역시 북구,2022-12-31,35.20614931,129.0282064,,2023-07-01 5:30
부산대학교 직장 어린이집,부산광역시 금정구청,부산광역시 금정구,2022-12-31,35.236397,129.083388,,2023-07-01 5:30
부산대학교병원,부산광역시 서구청,부산광역시 서구,2022-12-31,35.10112888,129.0192443,,2023-07-01 5:30
부산대학교부설어린이집,부산광역시 금정구청,부산광역시 금정구,2022-12-31,35.23641,129.083411,,2023-07-01 5:30
부산데파트,부산광역시 중구청,부산광역시 중구,2022-12-31,35.099449,129.0362037,,2023-07-01 5:30
부산도서관,부산광역시 사상구청,부산광역시 사상구,2022-12-31,35.17272317,128.9852978,,2023-07-01 5:30
부산도시공사,부산광역시 부산진구청,부산진구,2023-01-11,35.1559615,129.0514217,,2023-07-01 5:30
부산러닝어학학원,,,,부산 해운대구 센텀2로 24,,,
부산레포츠 찜질방,부산광역시 금정구청,부산광역시 금정구,2022-12-31,35.237623,129.083935,,2023-07-01 5:30
부산마이크로병원,부산광역시 금정구청,부산광역시 금정구,2022-12-31,35.251752,129.091149,,2023-07-01 5:30
부산맘아동병원,부산광역시 사하구청,부산광역시 사하구,2022-12-31,35.10628172,128.9698292,,2023-07-01 5:30
부산메리츠타워,부산광역시 동구청,부산광역시 동구,2021-01-21,35.125973,129.045288,,2023-07-01 5:30
부산문화회관,부산광역시 남구청,부산광역시 남구,2023-01-16,129.0929994,35.12595543,,2023-07-01 5:30
부산백병원장례식장,,,,부산 부산진구 개금동 633-165,,,
부산법원어린이집,부산광역시 연제구청,부산광역시 연제구,2022-12-31,35.19253748,129.0732703,,2023-07-01 5:30
부산본병원,부산광역시 사하구청,부산광역시 사하구,2022-12-31,35.07651414,128.9622942,,2023-07-01 5:30
부산산업용재유통상가,부산광역시 사상구청,부산광역시 사상구,2022-12-31,35.15315184,128.9823021,,2023-07-01 5:30
부산산업용품상협동조합,부산광역시 사상구청,부산광역시 사상구,2022-12-31,35.15975522,128.9804344,,2023-07-01 5:30
부산산업용품상협동조합,부산광역시 사상구청,부산광역시 사상구,2022-12-31,35.15975522,128.9804344,,2023-07-01 5:30
부산삼성화재,부산광역시 동구청,부산광역시 동구,2021-01-21,35.113788,129.039447,,2023-07-01 5:30
부산서부시외버스터미널㈜,부산광역시 사상구청,부산광역시 사상구,2022-12-31,35.16314616,128.9809858,,2023-07-01 5:30
부산성모병원,부산광역시 남구청,부산광역시 남구,2023-01-16,129.1091922,35.11051148,,2023-07-01 5:30
부산성모병원장례식장,부산광역시 남구청,부산광역시 남구,2023-01-16,129.1091922,35.11051148,,2023-07-01 5:30
부산성모병원주차장,부산광역시 남구청,부산광역시 남구,2023-01-16,129.1091922,35.11051148,,2023-07-01 5:30
부산성소병원,부산광역시 남구청,부산광역시 남구,2023-01-16,129.0857817,35.13515152,,2023-07-01 5:30
부산시립미술관,부산광역시 해운대구청,부산광역시 해운대구,2022-12-31,35.171152,129.133661,,2023-07-01 5:30
부산시립미술관,부산광역시 해운대구청,부산광역시 해운대구,2022-12-31,35.171662,129.176542,,2023-07-01 5:30
부산시립박물관,부산광역시 남구청,부산광역시 남구,2023-01-16,129.0929379,35.12955255,,2023-07-01 5:30
부산시립정신병원,부산광역시 사상구청,부산광역시 사상구,2022-12-31,35.13290944,128.9950514,,2023-07-01 5:30
부산시민공원,부산광역시 부산진구청,부산진구,2023-01-11,35.1660271,129.057532,,2023-07-01 5:30
부산시민회관,부산광역시 동구청,부산광역시 동구,2021-01-21,35.138948,129.06521,,2023-07-01 5:30
부산시설공단 서면몰,부산광역시 부산진구청,부산진구,2023-01-11,35.1270869,129.0477891,,2023-07-01 5:30
부산시티센터,부산광역시 부산진구청,부산진구,2023-01-11,35.1618087,129.0618762,,2023-07-01 5:30
부산에이스하이테크21,부산광역시 해운대구청,부산광역시 해운대구,2022-12-31,35.163355,129.157605,,2023-07-01 5:30
부산여자대학교 다촌문화관,,,,부산 부산진구 진남로 506,,,
부산역지하상가,부산광역시 동구청,부산광역시 동구,2021-01-21,35.114654,129.039315,,2023-07-01 5:30
부산영화체험박물관,부산광역시 중구청,부산광역시 중구,2022-12-31,35.1016888,129.0335888,,2023-07-01 5:30
부산예술관,부산광역시 남구청,부산광역시 남구,2023-01-16,129.0927816,35.12771512,,2023-07-01 5:30
부산온누리감리교회,부산광역시 해운대구청,부산광역시 해운대구,2022-12-31,35.158977,129.153756,,2023-07-01 5:30
부산유스호스텔아르피나,부산광역시 해운대구청,부산광역시 해운대구,2022-12-31,35.168861,129.175784,,2023-07-01 5:30
부산은빛요양병원(구.참행복 요양병원),부산광역시 북구청,부산광역시 북구,2022-12-31,35.19835047,128.9966213,,2023-07-01 5:30
부산은행 본점,부산광역시 남구청,부산광역시 남구,2023-01-16,129.0658475,35.14549645,,2023-07-01 5:30
부산의료원노인전문제2병원,부산광역시 연제구청,부산광역시 연제구,2022-12-31,35.18741703,129.0600491,,2023-07-01 5:30
부산의료원장례식장,부산광역시 연제구청,부산광역시 연제구,2022-12-31,35.18741703,129.0600491,,2023-07-01 5:30
부산전문건설회관,부산광역시 부산진구청,부산진구,2023-01-11,35.1470921,129.0625519,,2023-07-01 5:30
부산전자종합시장,부산광역시 부산진구청,부산진구,2023-01-11,35.1635191,129.0625416,,2023-07-01 5:30
부산정신병원,부산광역시 사하구청,부산광역시 사하구,2022-12-31,35.05163272,128.9704972,,2023-07-01 5:30
부산제2항운병원,,,,부산 부산진구 범일로 186 파란시티 6~12층,,,
부산종합버스터미널,부산광역시 금정구청,부산광역시 금정구,2022-12-31,35.284897,129.095587,,2023-07-01 5:30
부산중앙어린이집,부산광역시 수영구청,부산광역시 수영구,2022-12-31,35.14929575,129.1065254,,2023-07-01 5:30
부산지방국세청,부산광역시 연제구청,부산광역시 연제구,2022-12-31,35.17680067,129.0781791,,2023-07-01 5:30
부산진구 노인의료센터 →부산진구노인요양센터,부산광역시 부산진구청,부산진구,2023-01-11,35.1537879,129.0277256,,2023-07-01 5:30
부산진구사회복지관어린이집 ,,,,부산 부산진구 복지로 117-12,,,
부산진구청,부산광역시 부산진구청,부산진구,2023-01-11,35.1626425,129.0531904,,2023-07-01 5:30
부산진구청어린이집,부산광역시 부산진구청,부산진구,2023-01-11,35.1626425,129.0531904,,2023-07-01 5:30
부산진시장,부산광역시 동구청,부산광역시 동구,2021-01-21,35.136536,129.058753,,2023-07-01 5:30
부산진시장 주차빌딩,부산광역시 동구청,부산광역시 동구,2021-01-21,35.137632,129.058126,,2023-07-01 5:30
부산초량엠디엠타워,부산광역시 동구청,부산광역시 동구,2021-01-21,35.116706,129.041042,,2023-07-01 5:30
부산컴퓨터 도매상가,부산광역시 동래구청,부산광역시 동래구,2022-12-31,35.21397883,129.0796376,,2023-07-01 5:30
부산컴퓨터 도매상가,부산광역시 동래구청,부산광역시 동래구,2022-12-31,35.21397883,129.0796376,,2023-07-01 5:30
부산코레일새싹어린이집,부산광역시 부산진구청,부산진구,2023-01-11,35.1621885,129.044421,,2023-07-01 5:30
부산큰병원,,,,부산 부산진구 가야대로 494 대도빌딩 지하1층~4층,,,
부산평화시장,,,,부산 부산진구 자유평화로3번길 14-18,,,
부산항 국제여객터미널,부산광역시 동구청,부산광역시 동구,2021-01-21,35.121224,129.04874,,2023-07-01 5:30
부산항 국제여객터미널,부산광역시 동구청,부산광역시 동구,2021-01-21,35.121224,129.04874,,2023-07-01 5:30
부산항 대중탕,부산광역시 영도구청,부산광역시 영도구,2022-12-31,35.0900441,129.0420637,,2023-07-01 5:30
부산항운병원,부산광역시 동래구청,부산광역시 동래구,2022-12-31,35.19755796,129.0964078,,2023-07-01 5:30
부산해수탕,부산광역시 동구청,부산광역시 동구,2021-01-21,35.140598,129.062354,,2023-07-01 5:30
부산혜민요양병원,부산광역시 동구청,부산광역시 동구,2021-01-21,35.140064,129.056898,,2023-07-01 5:30
부산힐튼호텔,부산광역시 기장군청,부산광역시 기장군,2023-01-01,35.1976532,129.2279582,,2023-07-01 5:30
부암역,부산광역시 부산진구청,부산진구,2023-01-11,35.15765009,129.0500584,,2023-07-01 5:30
부영병원,부산광역시 사상구청,부산광역시 사상구,2022-12-31,35.14121421,128.9840247,,2023-07-01 5:30
부전교회,부산광역시 동래구청,부산광역시 동래구,2022-12-31,35.20041519,129.0783817,,2023-07-01 5:30
부전역,부산광역시 부산진구청,부산진구,2023-01-11,35.16263888,129.063009,,2023-07-01 5:30
북부교육청,부산광역시 북구청,부산광역시 북구,2022-12-31,35.19417026,128.9952142,,2023-07-01 5:30
비아이에프씨몰(BIFC Mall),부산광역시 남구청,부산광역시 남구,2023-01-16,129.0658605,35.14648787,,2023-07-01 5:30
빌리브센트로,부산광역시 남구청,부산광역시 남구,2023-01-16,129.1156739,35.1305079,,2023-07-01 5:30
뽀로로파크 부산점,부산광역시 남구청,부산광역시 남구,2023-01-16,129.1112149,35.1342266,,2023-07-01 5:30
쁘띠쁘아어린이집,부산광역시 동래구청,부산광역시 동래구,2022-12-31,35.20689079,129.0575569,,2023-07-01 5:30
사단법인 대승불교보광정사 보광요양병원,부산광역시 금정구청,부산광역시 금정구,2022-12-31,35.214445,129.112555,,2023-07-01 5:30
사단법인청색회 연지그린요양병원,부산광역시 부산진구청,부산진구,2023-01-11,35.1728887,129.049646,,2023-07-01 5:30
사랑요양병원,부산광역시 금정구청,부산광역시 금정구,2022-12-31,35.226562,129.089676,,2023-07-01 5:30
사상도서관,부산광역시 사상구청,부산광역시 사상구,2022-12-31,35.17812993,128.9897944,,2023-07-01 5:30
사상스마트병원,,,,부산 사상구 학감대로 269 지하2~지상10층,,,
사상제일요양병원,부산광역시 사상구청,부산광역시 사상구,2022-12-31,35.16975966,128.982762,,2023-07-01 5:30
사상지하철역,부산광역시 사상구청,부산광역시 사상구,2022-12-31,35.16246458,128.9846366,,2023-07-01 5:30
사이버존PC방,부산광역시 금정구청,부산광역시 금정구,2022-12-31,35.237526,129.083186,,2023-07-01 5:30
사직레포츠대중탕,부산광역시 동래구청,부산광역시 동래구,2022-12-31,35.19885829,129.0618012,,2023-07-01 5:30
사직역,부산광역시 동래구청,부산광역시 동래구,2022-12-31,35.20367126,129.0872104,,2023-07-01 5:30
사직요양병원,부산광역시 동래구청,부산광역시 동래구,2022-12-31,35.207342,129.071829,,2023-07-01 5:30
사하경찰서어린이집,부산광역시 사하구청,부산광역시 사하구,2022-12-31,35.0859575,128.9784709,,2023-07-01 5:30
사회복지법인 해월 무량수노인요양원,부산광역시 동래구청,부산광역시 동래구,2022-12-31,35.21334194,129.0630115,,2023-07-01 5:30
사회복지법인 황전 황전요양원,부산광역시 동래구청,부산광역시 동래구,2022-12-31,35.2117003,129.0549065,,2023-07-01 5:30
산새소리어린이집,부산광역시 사하구청,부산광역시 사하구,2022-12-31,35.09970935,128.9575108,,2023-07-01 5:30
산새소리어린이집,부산광역시 북구청,부산광역시 북구,2022-12-31,35.21528616,129.025259,,2023-07-01 5:30
산새소리어린이집,부산광역시 기장군청,부산광역시 기장군,2023-01-01,35.241642,129.2084413,,2023-07-01 5:30
삼동어린이집,부산광역시 기장군청,부산광역시 기장군,2023-01-01,35.3117277,129.115279,,2023-07-01 5:30
삼성생명보험㈜부산총국,부산광역시 부산진구청,부산진구,2023-01-11,35.1497345,129.0587945,,2023-07-01 5:30
삼성전기부산어린이집,부산광역시 강서구청,강서구,2022-12-22,35.10041,128.84195,,2023-07-01 5:30
삼성전자 사하빌딩 실내주차장,부산광역시 사하구청,부산광역시 사하구,2022-12-31,35.10663224,128.9677054,,2023-07-01 5:30
삼성홈플러스 영도점(대규모점포),부산광역시 영도구청,부산광역시 영도구,2022-12-31,35.09590511,129.0442257,,2023-07-01 5:30
삼성홈플러스 영도점(주차장),부산광역시 영도구청,부산광역시 영도구,2022-12-31,35.09590511,129.0442257,,2023-07-01 5:30
삼육부산병원,부산광역시 서구청,부산광역시 서구,2022-12-31,35.11206562,129.0109763,,2023-07-01 5:30
삼인요양병원,,,,"부산 사상구 대동로 95 4, 8~10층",,,
삼정 그린코아 더 시티,부산광역시 부산진구청,부산진구,2023-01-11,35.1587335,129.063596,,2023-07-01 5:30
삼정그린어린이집,부산광역시 기장군청,부산광역시 기장군,2023-01-01,35.2011828,129.2058804,,2023-07-01 5:30
삼정기업빌딩(구 대림빌딩),부산광역시 부산진구청,부산진구,2023-01-11,35.1616063,129.0614092,,2023-07-01 5:30
삼정자이언츠파크,부산광역시 동래구청,부산광역시 동래구,2022-12-31,35.19626616,129.0613611,,2023-07-01 5:30
삼정타워,,,,부산 부산진구 중앙대로 672,,,
삼정타워 서면점 챔피언 어린이놀이시설,,,,부산 부산진구 중앙대로 672 7층,,,
삼한골든뷰,부산광역시 북구청,부산광역시 북구,2022-12-31,35.23418327,129.0133067,,2023-07-01 5:30
삼한골든뷰,,,,부산 금정구 중앙대로 1967,,,
삼환미포씨랜드,부산광역시 해운대구청,부산광역시 해운대구,2022-12-31,35.171354,129.127196,,2023-07-01 5:30
상락정배산실버빌,부산광역시 수영구청,부산광역시 수영구,2022-12-31,35.17731533,129.0981227,,2023-07-01 5:30
새라새요양병원,부산광역시 남구청,부산광역시 남구,2023-01-16,129.0845393,35.12174089,,2023-07-01 5:30
새로생긴pc방,,,,부산 남구 수영로 286 2층,,,
새로생긴PC방 반여점,,,,부산 해운대구 선수촌로 109-1,,,
새부산병원,부산광역시 동구청,부산광역시 동구,2021-01-21,35.118348,129.039226,,2023-07-01 5:30
새안락병원,부산광역시 동래구청,부산광역시 동래구,2022-12-31,35.19904576,129.1072335,,2023-07-01 5:30
새우리남산병원,부산광역시 금정구청,부산광역시 금정구,2022-12-31,35.265269,129.092199,,2023-07-01 5:30
새항운병원,부산광역시 연제구청,부산광역시 연제구,2022-12-31,35.18290872,129.0795664,,2023-07-01 5:30
새힘병원,,,,"부산 동래구 아시아드대로 261 지하1층, 1~6층",,,
샘물어린이집,부산광역시 사하구청,부산광역시 사하구,2022-12-31,35.10329179,128.9694866,,2023-07-01 5:30
샬롬어린이집,부산광역시 남구청,부산광역시 남구,2023-01-16,129.0850775,35.11931131,,2023-07-01 5:30
서광자연어린이집,부산광역시 북구청,부산광역시 북구,2022-12-31,35.21187421,129.0449681,,2023-07-01 5:30
서동역(4호선),부산광역시 금정구청,부산광역시 금정구,2022-12-31,35.213333,129.107703,,2023-07-01 5:30
서동제일요양병원,부산광역시 금정구청,부산광역시 금정구,2022-12-31,35.21436,129.105212,,2023-07-01 5:30
서면더존한방병원,부산광역시 부산진구청,부산진구,2023-01-11,35.1559905,129.0595791,,2023-07-01 5:30
서면시장,,,,부산 부산진구 서면로 56,,,
서면역(1호선),부산광역시 부산진구청,부산진구,2023-01-11,35.16263953,129.0505507,,2023-07-01 5:30
서면역(2호선),부산광역시 부산진구청,부산진구,2023-01-11,35.16263953,129.0505507,,2023-07-01 5:30
서면전자랜드 ,부산광역시 부산진구청,부산진구,2023-01-11,35.1575574,129.0599572,,2023-07-01 5:30
서면종합시장,부산광역시 부산진구청,부산진구,2023-01-11,35.161915,129.0590007,,2023-07-01 5:30
서면중앙시장,부산광역시 부산진구청,부산진구,2023-01-11,35.160855,129.0633137,,2023-07-01 5:30
서부산노인요양원,부산광역시 사상구청,부산광역시 사상구,2022-12-31,35.16674461,128.9879555,,2023-07-01 5:30
서부산시민 장례식장,부산광역시 사하구청,부산광역시 사하구,2022-12-31,35.08094381,128.9719851,,2023-07-01 5:30
서울우리요양병원,,,,부산 북구 화명대로 42 6~9층,,,
서호하단병원,,,,부산 사하구 낙동대로 446 7-14층,,,
서희스타힐스센텀프리모,부산광역시 수영구청,부산광역시 수영구,2022-12-31,35.15733241,129.1274333,,2023-07-01 5:30
선안요양병원,부산광역시 사하구청,부산광역시 사하구,2022-12-31,35.09904798,128.9904182,,2023-07-01 5:30
선양시니어빌리지,부산광역시 기장군청,부산광역시 기장군,2023-01-01,35.3351851,129.2836574,,2023-07-01 5:30
선재노인전문요양원,부산광역시 부산진구청,부산진구,2023-01-11,35.1832775,129.0500255,,2023-07-01 5:30
선재어린이집,부산광역시 금정구청,부산광역시 금정구,2022-12-31,35.255693,129.090525,,2023-07-01 5:30
선하요양병원,부산광역시 서구청,부산광역시 서구,2022-12-31,35.10238063,129.0203247,,2023-07-01 5:30
성가병원,부산광역시 부산진구청,부산진구,2023-01-11,35.1420626,129.0590277,,2023-07-01 5:30
성모희보어린이집,부산광역시 중구청,부산광역시 중구,2022-12-31,35.10586692,129.0309323,,2023-07-01 5:30
성문입시학원,,,,부산 해운대구 좌동순환로 310,,,
성분도어버이집,부산광역시 수영구청,부산광역시 수영구,2022-12-31,35.15069777,129.1109123,,2023-07-01 5:30
성산현대요양병원,부산광역시 동래구청,부산광역시 동래구,2022-12-31,35.21741464,129.0855046,,2023-07-01 5:30
세나어린이집,부산광역시 해운대구청,부산광역시 해운대구,2022-12-31,35.1719,129.174878,,2023-07-01 5:30
세림어린이집,부산광역시 수영구청,부산광역시 수영구,2022-12-31,35.17484041,129.1006692,,2023-07-01 5:30
세웅병원,부산광역시 금정구청,부산광역시 금정구,2022-12-31,35.214486,129.104115,,2023-07-01 5:30
세원요양병원,부산광역시 서구청,부산광역시 서구,2022-12-31,35.09266652,129.024416,,2023-07-01 5:30
세이브존리베라,부산광역시 해운대구청,부산광역시 해운대구,2022-12-31,35.162266,129.165489,,2023-07-01 5:30
세일병원,부산광역시 동구청,부산광역시 동구,2021-01-21,35.12491,129.044591,,2023-07-01 5:30
세정아울렛 부산점,부산광역시 사하구청,부산광역시 사하구,2022-12-31,35.08372718,128.9778302,,2023-07-01 5:30
세종월드프라자,부산광역시 해운대구청,부산광역시 해운대구,2022-12-31,35.175654,129.126016,,2023-07-01 5:30
세화병원,부산광역시 동래구청,부산광역시 동래구,2022-12-31,35.20591452,129.0711842,,2023-07-01 5:30
세흥병원,부산광역시 부산진구청,부산진구,2023-01-11,35.1636897,35.1636897,,2023-07-01 5:30
센텀 임페리얼 타워빌딩,부산광역시 해운대구청,부산광역시 해운대구,2022-12-31,35.168895,129.129747,,2023-07-01 5:30
센텀SH밸리,부산광역시 해운대구청,부산광역시 해운대구,2022-12-31,35.168995,129.175791,,2023-07-01 5:30
센텀T-TOWER,부산광역시 해운대구청,부산광역시 해운대구,2022-12-31,35.189672,129.126824,,2023-07-01 5:30
센텀그린타워,부산광역시 해운대구청,부산광역시 해운대구,2022-12-31,35.169366,129.176608,,2023-07-01 5:30
센텀다이아몬드,부산광역시 해운대구청,부산광역시 해운대구,2022-12-31,35.171354,129.127196,,2023-07-01 5:30
센텀드림월드,부산광역시 해운대구청,부산광역시 해운대구,2022-12-31,35.160294,129.161417,,2023-07-01 5:30
센텀리더스마크,부산광역시 해운대구청,부산광역시 해운대구,2022-12-31,35.180005,129.127735,,2023-07-01 5:30
센텀마티안,부산광역시 해운대구청,부산광역시 해운대구,2022-12-31,35.186319,129.123843,,2023-07-01 5:30
센텀사랑의병원,,,,부산 수영구 수영로 733,,,
센텀사이언스파크,부산광역시 해운대구청,부산광역시 해운대구,2022-12-31,35.193821,129.125052,,2023-07-01 5:30
센텀스카이비즈,부산광역시 해운대구청,부산광역시 해운대구,2022-12-31,35.159819,129.15886,,2023-07-01 5:30
센텀시티역,부산광역시 해운대구청,부산광역시 해운대구,2022-12-31,35.173318,129.12766,,2023-07-01 5:30
센텀아이에스타워,부산광역시 해운대구청,부산광역시 해운대구,2022-12-31,35.166033,129.167388,,2023-07-01 5:30
센텀이루다 요양병원,,,,"부산 해운대구 APEC로 17 센텀리더스마크 1~3층, 5~8층",,,
센텀코아,부산광역시 해운대구청,부산광역시 해운대구,2022-12-31,36.171152,129.167388,,2023-07-01 5:30
센텀프리미어호텔,부산광역시 해운대구청,부산광역시 해운대구,2022-12-31,35.16938,129.138235,,2023-07-01 5:30
센텀해인요양병원,,,,부산 수영구 수영로 671 해인메디컬 5~11층,,,
센텀호텔㈜,부산광역시 해운대구청,부산광역시 해운대구,2022-12-31,35.190981,129.119397,,2023-07-01 5:30
센텀힐병원,부산광역시 해운대구청,부산광역시 해운대구,2022-12-31,35.160302,129.164668,,2023-07-01 5:30
센트럴병원,부산광역시 북구청,부산광역시 북구,2022-12-31,35.211515,129.009067,,2023-07-01 5:30
센트럴원,부산광역시 기장군청,부산광역시 기장군,2023-01-01,35.1905317,129.2174898,,2023-07-01 5:30
소담어린이집,부산광역시 연제구청,부산광역시 연제구,2022-12-31,35.17555859,129.0940371,,2023-07-01 5:30
소명선교어린이집,부산광역시 해운대구청,부산광역시 해운대구,2022-12-31,35.172272,129.174955,,2023-07-01 5:30
송도사랑요양원,부산광역시 서구청,부산광역시 서구,2022-12-31,35.07973699,129.012138,,2023-07-01 5:30
송도요양병원,부산광역시 서구청,부산광역시 서구,2022-12-31,35.07973699,129.012138,,2023-07-01 5:30
송도해수피아,부산광역시 서구청,부산광역시 서구,2022-12-31,35.082406,129.0255529,,2023-07-01 5:30
송도힐스테이트어린이집,부산광역시 서구청,부산광역시 서구,2022-12-31,35.07876133,129.0229269,,2023-07-01 5:30
송산노인전문요양원,부산광역시 중구청,부산광역시 중구,2022-12-31,35.10820976,129.0384099,,2023-07-01 5:30
송원노인전문요양원,부산광역시 동구청,부산광역시 동구,2021-01-21,35.145607,129.043948,,2023-07-01 5:30
수 실버원,부산광역시 사하구청,부산광역시 사하구,2022-12-31,35.07660279,128.9726353,,2023-07-01 5:30
수아&영이 어린이집,부산광역시 수영구청,부산광역시 수영구,2022-12-31,35.15601249,129.1161871,,2023-07-01 5:30
수안역,부산광역시 동래구청,부산광역시 동래구,2022-12-31,35.20367126,129.0872104,,2023-07-01 5:30
수연어린이집,부산광역시 금정구청,부산광역시 금정구,2022-12-31,35.225197,129.08724,,2023-07-01 5:30
수영SK뷰어린이집,,,,부산 수영구 망미배산로 56 수영SK뷰 관리동,,,
수영구 보건소,부산광역시 수영구청,부산광역시 수영구,2022-12-31,35.16247327,129.1134875,,2023-07-01 5:30
수영동산어린이집,부산광역시 수영구청,부산광역시 수영구,2022-12-31,35.16922829,129.1160276,,2023-07-01 5:30
수영역(2호선),부산광역시 수영구청,부산광역시 수영구,2022-12-31,35.16589519,129.1148294,,2023-07-01 5:30
수영역(3호선),부산광역시 수영구청,부산광역시 수영구,2022-12-31,35.16589519,129.1148294,,2023-07-01 5:30
수영주차장,부산광역시 수영구청,부산광역시 수영구,2022-12-31,35.16182678,129.1132152,,2023-07-01 5:30
수영지하상가,부산광역시 수영구청,부산광역시 수영구,2022-12-31,35.16589519,129.1148294,,2023-07-01 5:30
수영효도요양원,,,,부산 수영구 민락본동로 14-3,,,
수장례식장,부산광역시 부산진구청,부산진구,2023-01-11,35.1689518,129.0490195,,2023-07-01 5:30
수정삼성어린이집,부산광역시 동구청,부산광역시 동구,2021-01-21,35.131393,129.045004,,2023-07-01 5:30
수정안과의원,부산광역시 북구청,부산광역시 북구,2022-12-31,35.21048295,129.0058285,,2023-07-01 5:30
수정역,부산광역시 북구청,부산광역시 북구,2022-12-31,35.22308356,129.0091486,,2023-07-01 5:30
숙등역,부산광역시 북구청,부산광역시 북구,2022-12-31,35.21214634,129.0134688,,2023-07-01 5:30
순산후조리원 신관,부산광역시 금정구청,부산광역시 금정구,2022-12-31,35.235227,129.091362,,2023-07-01 5:30
순여성병원,부산광역시 금정구청,부산광역시 금정구,2022-12-31,35.236475,129.09143,,2023-07-01 5:30
숲속나라어린이집,부산광역시 기장군청,부산광역시 기장군,2023-01-01,35.3352586,129.1727143,,2023-07-01 5:30
숲속어린이집,부산광역시 해운대구청,부산광역시 해운대구,2022-12-31,35.159494,129.144377,,2023-07-01 5:30
숲속은성어린이집,부산광역시 북구청,부산광역시 북구,2022-12-31,35.19752977,129.004876,,2023-07-01 5:30
스타자동차㈜ [메르세데스벤츠 해운대서비스센터],부산광역시 해운대구청,부산광역시 해운대구,2022-12-31,35.227927,129.147114,,2023-07-01 5:30
스파젠,부산광역시 해운대구청,부산광역시 해운대구,2022-12-31,35.161126,129.166797,,2023-07-01 5:30
스파크,부산광역시 남구청,부산광역시 남구,2023-01-16,129.0992747,35.13733728,,2023-07-01 5:30
스펀지어린이집,부산광역시 동래구청,부산광역시 동래구,2022-12-31,35.19467137,129.1025951,,2023-07-01 5:30
스페셜 PC방,,,,부산 동래구 반송로273번길 7 지하1층,,,
스푼 PC방,부산광역시 수영구청,부산광역시 수영구,2022-12-31,35.13889555,129.1082938,,2023-07-01 5:30
스푼PC방,,,,부산 남구 우암로 148,,,
승원어린이집,부산광역시 동래구청,부산광역시 동래구,2022-12-31,35.19512145,129.0705591,,2023-07-01 5:30
승학어린이집,부산광역시 사하구청,부산광역시 사하구,2022-12-31,35.10407889,128.9847644,,2023-07-01 5:30
시민장례식장,,,,부산 부산진구 자유평화로 31,,,
시설관리공단 부전몰,부산광역시 부산진구청,부산진구,2023-01-11,35.1605239,129.0613646,,2023-07-01 5:30
시원항병원,부산광역시 북구청,부산광역시 북구,2022-12-31,35.21233733,129.0041393,,2023-07-01 5:30
시청센트빌,부산광역시 부산진구청,부산진구,2023-01-11,35.1773603,129.074114,,2023-07-01 5:30
시청역 롯데골드로즈,,,,부산 부산진구 중앙대로 993,,,
시크릿쥬쥬&또봇 센텀점,,,,부산 해운대구 센텀동로 6 3층,,,
시티요양병원,부산광역시 연제구청,부산광역시 연제구,2022-12-31,35.18397262,129.0805466,,2023-07-01 5:30
시티타워,부산광역시 연제구청,부산광역시 연제구,2022-12-31,35.18805483,129.0806666,,2023-07-01 5:30
신괴정요양병원,부산광역시 사하구청,부산광역시 사하구,2022-12-31,35.10149368,128.9778671,,2023-07-01 5:30
신동아수산물종합시장,부산광역시 중구청,부산광역시 중구,2022-12-31,35.09671891,129.0286673,,2023-07-01 5:30
신동아수산물종합시장 실내주차장,부산광역시 중구청,부산광역시 중구,2022-12-31,35.09671891,129.0286673,,2023-07-01 5:30
신라대어린이집,부산광역시 사상구청,부산광역시 사상구,2022-12-31,35.1720525,128.9977969,,2023-07-01 5:30
신라스테이 해운대,부산광역시 해운대구청,부산광역시 해운대구,2022-12-31,35.166754,129.131515,,2023-07-01 5:30
신라요양병원,부산광역시 부산진구청,부산진구,2023-01-11,35.1538391,129.0335739,,2023-07-01 5:30
신망애노인요양원 ,부산광역시 금정구청,부산광역시 금정구,2022-12-31,35.231613,129.077126,,2023-07-01 5:30
신망애치매전문요양원,부산광역시 금정구청,부산광역시 금정구,2022-12-31,35.231613,129.077126,,2023-07-01 5:30
신선사우나휘트니스,부산광역시 부산진구청,부산진구,2023-01-11,35.1537116,129.024701,,2023-07-01 5:30
신세계 사이먼,부산광역시 기장군청,부산광역시 기장군,2023-01-01,35.3234853,129.2361577,,2023-07-01 5:30
신세계백화점 센텀시티몰,부산광역시 해운대구청,부산광역시 해운대구,2022-12-31,35.163622,129.158867,,2023-07-01 5:30
신세계백화점 센텀시티몰,부산광역시 해운대구청,부산광역시 해운대구,2022-12-31,35.17686,129.12544,,2023-07-01 5:30
신세계백화점 센텀시티점,부산광역시 해운대구청,부산광역시 해운대구,2022-12-31,35.162655,129.171706,,2023-07-01 5:30
신세계백화점 센텀시티점,부산광역시 해운대구청,부산광역시 해운대구,2022-12-31,35.169487,129.175981,,2023-07-01 5:30
신세계백화점 센텀시티점,부산광역시 해운대구청,부산광역시 해운대구,2022-12-31,35.197406,129.131641,,2023-07-01 5:30
신세계백화점 센텀시티점,부산광역시 해운대구청,부산광역시 해운대구,2022-12-31,35.205313,129.126278,,2023-07-01 5:30
신세계이마트금정점,부산광역시 금정구청,부산광역시 금정구,2022-12-31,35.249861,129.09088,,2023-07-01 5:30
신세계이마트금정점(실내주차장),부산광역시 금정구청,부산광역시 금정구,2022-12-31,35.249861,129.09088,,2023-07-01 5:30
신세계조선호텔 부산 (조선비치호텔),부산광역시 해운대구청,부산광역시 해운대구,2022-12-31,35.170452,129.132464,,2023-07-01 5:30
신창요양병원,부산광역시 중구청,부산광역시 중구,2022-12-31,35.22063996,128.6763757,,2023-07-01 5:30
신천지시장,부산광역시 중구청,부산광역시 중구,2022-12-31,35.09704163,129.0278158,,2023-07-01 5:30
신화하니엘타워,부산광역시 해운대구청,부산광역시 해운대구,2022-12-31,35.174626,129.127058,,2023-07-01 5:30
실버웰요양센터,부산광역시 서구청,부산광역시 서구,2022-12-31,35.11263376,129.008502,,2023-07-01 5:30
심당요양병원,부산광역시 중구청,부산광역시 중구,2022-12-31,35.11058443,129.0368934,,2023-07-01 5:30
씨드이 빌딩(구.코오롱빌딩),부산광역시 수영구청,부산광역시 수영구,2022-12-31,35.14865928,129.1110602,,2023-07-01 5:30
씨클라우드,부산광역시 해운대구청,부산광역시 해운대구,2022-12-31,35.158408,129.180914,,2023-07-01 5:30
아난티펜트하우스,부산광역시 기장군청,부산광역시 기장군,2023-01-01,35.1976532,129.2279582,,2023-07-01 5:30
아름다운강산병원,부산광역시 금정구청,부산광역시 금정구,2022-12-31,35.216268,129.109896,,2023-07-01 5:30
아름스파,,,,부산 사상구 대동로 304 2~4층,,,
아망떼PC존 동래점,부산광역시 동래구청,부산광역시 동래구,2022-12-31,35.19717744,129.0966224,,2023-07-01 5:30
아미초등지하공영주차장,부산광역시 서구청,부산광역시 서구,2022-12-31,35.09811338,129.0163096,,2023-07-01 5:30
아세안문화박물관,부산광역시 해운대구청,부산광역시 해운대구,2022-12-31,35.171152,129.133661,,2023-07-01 5:30
아시아드요양병원,,,,부산 연제구 월드컵대로 161 아시아드메디컬빌딩,,,
아이뜰어린이집,부산광역시 남구청,부산광역시 남구,2023-01-16,129.1099781,35.11749008,,2023-07-01 5:30
아이린 PC학장 본점,부산광역시 사상구청,부산광역시 사상구,2022-12-31,35.13882566,128.9788827,,2023-07-01 5:30
아이린PC&플스,,,,부산 부산진구 중앙대로691번길 5 3층,,,
아이린pc방,부산광역시 금정구청,부산광역시 금정구,2022-12-31,35.230966,129.088417,,2023-07-01 5:30
아이비어린이집,부산광역시 사상구청,부산광역시 사상구,2022-12-31,35.16761849,128.9848507,,2023-07-01 5:30
아이사랑병원,,,,"부산 연제구 반송로 28-1 태영메디컬빌딩 2~5,10층",,,
아이사랑산후조리원,부산광역시 부산진구청,부산진구,2023-01-11,35.1529013,35.1529013,,2023-07-01 5:30
아이세상어린이집,부산광역시 남구청,부산광역시 남구,2023-01-16,129.0728984,35.14256771,,2023-07-01 5:30
아이앤락 PC,,,,부산 사하구 동매로 21,,,
아이앤젤 여성의원,,,,부산 기장군 정관읍 정관로 601 4층,,,
아이엔젤 산후조리원,,,,부산 기장군 정관읍 정관로 601,,,
아이온시티,부산광역시 부산진구청,부산진구,2023-01-11,35.1570047,129.0582203,,2023-07-01 5:30
아이원어린이집,부산광역시 금정구청,부산광역시 금정구,2022-12-31,35.229225,129.092792,,2023-07-01 5:30
아이카페 PC방,부산광역시 서구청,부산광역시 서구,2022-12-31,35.10320321,129.0191091,,2023-07-01 5:30
아이파크 PC,,,,부산 수영구 감포로 106 2층,,,
아이파크 PC방,부산광역시 사상구청,부산광역시 사상구,2022-12-31,35.16397533,128.9833973,,2023-07-01 5:30
아이파크 PC방 우동점,,,,부산 수영구 감포로 106 2층,,,
아이파크PC방,부산광역시 금정구청,부산광역시 금정구,2022-12-31,35.237649,129.090931,,2023-07-01 5:30
아이파크PC방 CS점,,,,부산 남구 용소로8번길 10 2층,,,
아이팩토리 PC,,,,부산 수영구 수영로606번길 8,,,
아진어린이집,부산광역시 사상구청,부산광역시 사상구,2022-12-31,35.1547982,129.0157386,,2023-07-01 5:30
아테나PC방,부산광역시 사상구청,부산광역시 사상구,2022-12-31,35.13849923,128.977924,,2023-07-01 5:30
아테나PC좌동점,,,,부산 해운대구 좌동로 89 2층,,,
아트몰링 부산점,부산광역시 사하구청,부산광역시 사하구,2022-12-31,35.10681916,128.966874,,2023-07-01 5:30
아트몰링 부산점 실내주차장,부산광역시 사하구청,부산광역시 사하구,2022-12-31,35.10681916,128.966874,,2023-07-01 5:30
아트센터어린이집,부산광역시 사하구청,부산광역시 사하구,2022-12-31,35.10760051,128.976218,,2023-07-01 5:30
아하브병원,부산광역시 북구청,부산광역시 북구,2022-12-31,35.21171584,129.0489295,,2023-07-01 5:30
아하브요양병원,부산광역시 북구청,부산광역시 북구,2022-12-31,35.21171584,129.0489295,,2023-07-01 5:30
안나노인건강센터,부산광역시 서구청,부산광역시 서구,2022-12-31,35.12772837,129.004781,,2023-07-01 5:30
안델센어린이집,부산광역시 기장군청,부산광역시 기장군,2023-01-01,35.2962047,129.107876,,2023-07-01 5:30
안심노인요양시설,부산광역시 해운대구청,부산광역시 해운대구,2022-12-31,35.181143,129.198055,,2023-07-01 5:30
안심요양병원,부산광역시 연제구청,부산광역시 연제구,2022-12-31,35.18821295,129.1030897,,2023-07-01 5:30
안평노인요양원,부산광역시 금정구청,부산광역시 금정구,2022-12-31,35.228999,129.076309,,2023-07-01 5:30
알리안츠생명㈜부산사옥,부산광역시 부산진구청,부산진구,2023-01-11,35.1497341,129.0597691,,2023-07-01 5:30
애광노인요양원,부산광역시 금정구청,부산광역시 금정구,2022-12-31,35.228935,129.075208,,2023-07-01 5:30
애광치매전문요양원,부산광역시 금정구청,부산광역시 금정구,2022-12-31,35.228935,129.075208,,2023-07-01 5:30
애림실버웰,부산광역시 부산진구청,부산진구,2023-01-11,35.1472186,129.0452097,,2023-07-01 5:30
애림요양원,부산광역시 부산진구청,부산진구,2023-01-11,35.1472186,129.0452097,,2023-07-01 5:30
애플PC방,부산광역시 금정구청,부산광역시 금정구,2022-12-31,35.266109,129.092231,,2023-07-01 5:30
애플골프존(애플타워),부산광역시 기장군청,부산광역시 기장군,2023-01-01,35.3350379,129.1691563,,2023-07-01 5:30
앤유(nuPC),부산광역시 서구청,부산광역시 서구,2022-12-31,35.09346785,129.0233692,,2023-07-01 5:30
앤유pc 화명점,,,,부산 북구 화명신도시로 127 범서미라클 3층,,,
양덕어린이집,부산광역시 동래구청,부산광역시 동래구,2022-12-31,35.19553239,129.0689394,,2023-07-01 5:30
양문어린이집,부산광역시 남구청,부산광역시 남구,2023-01-16,129.0874484,35.12104776,,2023-07-01 5:30
양정삼성어린이집,부산광역시 부산진구청,부산진구,2023-01-11,35.1747949,129.0737388,,2023-07-01 5:30
양정시장,부산광역시 부산진구청,부산진구,2023-01-11,35.1727512,129.0697918,,2023-07-01 5:30
양정시장,부산광역시 부산진구청,부산진구,2023-01-11,35.1727512,129.0697918,,2023-07-01 5:30
양정역,부산광역시 부산진구청,부산진구,2023-01-11,35.17296847,129.0712233,,2023-07-01 5:30
양정역 퀸즈팰리스,부산광역시 부산진구청,부산진구,2023-01-11,35.1729743,129.0685808,,2023-07-01 5:30
양정요양병원,부산광역시 부산진구청,부산진구,2023-01-11,35.1719347,129.069163,,2023-07-01 5:30
양정현대어린이집,부산광역시 부산진구청,부산진구,2023-01-11,35.1718911,129.0637735,,2023-07-01 5:30
양정현대프라자,부산광역시 부산진구청,부산진구,2023-01-11,35.1733596,129.0632515,,2023-07-01 5:30
양정현대프라자,부산광역시 부산진구청,부산진구,2023-01-11,35.1733596,129.0632515,,2023-07-01 5:30
양지어린이집,부산광역시 사상구청,부산광역시 사상구,2022-12-31,35.15742313,129.0051148,,2023-07-01 5:30
양지요양병원,부산광역시 금정구청,부산광역시 금정구,2022-12-31,35.227123,129.082783,,2023-07-01 5:30
어쌔신 PC 화명점,,,,부산 북구 금곡대로303번길 25 명신프라자 6층,,,
어쌔신 PC클럽,,,,부산 금정구 금강로 379 제이씨빌딩 3층 301호,,,
엄궁지하공영주차장,부산광역시 사상구청,부산광역시 사상구,2022-12-31,35.12918626,128.9743987,,2023-07-01 5:30
업타운PC,,,,부산 남구 수영로 31 3층,,,
에덴어린이병원,,,,부산 부산진구 가야대로 649 ek메디컬센터 8~15층,,,
에듀윌부산학원,,,,부산 부산진구 전포대로199번길 19 7층,,,
에디스여성병원,부산광역시 사하구청,부산광역시 사하구,2022-12-31,35.09883585,128.9630833,,2023-07-01 5:30
에메랄드홈,부산광역시 부산진구청,부산진구,2023-01-11,35.1617766,129.0631698,,2023-07-01 5:30
에스병원(S병원),부산광역시 영도구청,부산광역시 영도구,2022-12-31,35.07827399,129.0700406,,2023-07-01 5:30
에스케이허브스카이위아,부산광역시 동래구청,부산광역시 동래구,2022-12-31,35.22128992,129.0855783,,2023-07-01 5:30
에스케이허브스카이위아 ㈜위아에셋,부산광역시 동래구청,부산광역시 동래구,2022-12-31,35.22128992,129.0855783,,2023-07-01 5:30
에이아이(AI)PC방,부산광역시 동구청,부산광역시 동구,2021-01-21,35.120256,129.039839,,2023-07-01 5:30
에이치스위트 해운대,부산광역시 해운대구청,부산광역시 해운대구,2022-12-31,35.167999,129.132792,,2023-07-01 5:30
엑슬루타워상가,,,,부산 수영구 황령대로473번길 15,,,
엔젤어린이집,부산광역시 기장군청,부산광역시 기장군,2023-01-01,35.237065,129.237065,,2023-07-01 5:30
엔젤인어린이집,부산광역시 북구청,부산광역시 북구,2022-12-31,35.21258683,129.0351162,,2023-07-01 5:30
엔쿡 피시방 서면본점,,,,부산 부산진구 신천대로62번길 77,,,
엘리움,부산광역시 해운대구청,부산광역시 해운대구,2022-12-31,35.231934,129.157953,,2023-07-01 5:30
엘리움 산후조리원,부산광역시 해운대구청,부산광역시 해운대구,2022-12-31,35.170995,129.177675,,2023-07-01 5:30
엘림어린이집,부산광역시 부산진구청,부산진구,2023-01-11,35.1571954,129.0732276,,2023-07-01 5:30
엘시티 더몰,,,,부산 해운대구 달맞이길 30,,,
엘시티더레지던스,,,,부산 해운대구 달맞이길 30,,,
엠존 PC방,부산광역시 사상구청,부산광역시 사상구,2022-12-31,35.13802514,128.9776413,,2023-07-01 5:30
엠탐PC토랑 명지점,,,,부산 강서구 명지오션시티4로 70 3층,,,
연산SK뷰단지빌딩,부산광역시 연제구청,부산광역시 연제구,2022-12-31,35.18837291,129.0813845,,2023-07-01 5:30
연산관자재요양병원,부산광역시 연제구청,부산광역시 연제구,2022-12-31,35.18287253,129.1074969,,2023-07-01 5:30
연산당당한방병원,부산광역시 연제구청,부산광역시 연제구,2022-12-31,35.18180564,129.0839763,,2023-07-01 5:30
연산병원,부산광역시 연제구청,부산광역시 연제구,2022-12-31,35.17809592,129.0945432,,2023-07-01 5:30
연산요양병원,부산광역시 연제구청,부산광역시 연제구,2022-12-31,35.17809592,129.0945432,,2023-07-01 5:30
연산인제요양병원,부산광역시 연제구청,부산광역시 연제구,2022-12-31,35.18507234,129.1074499,,2023-07-01 5:30
연세척병원,,,,부산 부산진구 가야대로 715 위너스빌딩 1~4층,,,
연우어르신의 집,부산광역시 북구청,부산광역시 북구,2022-12-31,35.21094446,129.0441912,,2023-07-01 5:30
연제나라요양병원,부산광역시 연제구청,부산광역시 연제구,2022-12-31,35.19216869,129.0792608,,2023-07-01 5:30
연제옥스퍼드어린이집,부산광역시 연제구청,부산광역시 연제구,2022-12-31,35.17948216,129.0654792,,2023-07-01 5:30
연제일신병원,부산광역시 연제구청,부산광역시 연제구,2022-12-31,35.18566443,129.0828748,,2023-07-01 5:30
연제일신산후조리원,부산광역시 연제구청,부산광역시 연제구,2022-12-31,35.18605149,129.0829348,,2023-07-01 5:30
연지꿈동산어린이집,부산광역시 부산진구청,부산진구,2023-01-11,35.1758086,129.0537609,,2023-07-01 5:30
연희어린이집,부산광역시 사하구청,부산광역시 사하구,2022-12-31,35.1081439,128.9601216,,2023-07-01 5:30
영도병원 본관,부산광역시 영도구청,부산광역시 영도구,2022-12-31,35.092242,129.0405264,,2023-07-01 5:30
영도참편한요양병원,부산광역시 영도구청,부산광역시 영도구,2022-12-31,35.08084937,129.0687045,,2023-07-01 5:30
영도해수랜드,부산광역시 영도구청,부산광역시 영도구,2022-12-31,35.08370856,129.0382574,,2023-07-01 5:30
영선대로 지하공영주차장,부산광역시 영도구청,부산광역시 영도구,2022-12-31,35.09039223,129.0431808,,2023-07-01 5:30
영선어린이집,부산광역시 영도구청,부산광역시 영도구,2022-12-31,35.07961216,129.0465594,,2023-07-01 5:30
영재타운어린이집,,,,부산 금정구 식물원로 82 금정산 SK뷰 아파트,,,
영주암어린이집,부산광역시 수영구청,부산광역시 수영구,2022-12-31,35.17625918,129.0992832,,2023-07-01 5:30
영주어린이집,부산광역시 중구청,부산광역시 중구,2022-12-31,35.11186392,129.0295599,,2023-07-01 5:30
영지어린이집,부산광역시 영도구청,부산광역시 영도구,2022-12-31,35.08991673,129.0576572,,2023-07-01 5:30
영화의전당,부산광역시 해운대구청,부산광역시 해운대구,2022-12-31,35.165755,129.135941,,2023-07-01 5:30
영화의전당,부산광역시 해운대구청,부산광역시 해운대구,2022-12-31,35.168955,129.178439,,2023-07-01 5:30
영화의전당 인디플러스,부산광역시 해운대구청,부산광역시 해운대구,2022-12-31,35.156891,129.146929,,2023-07-01 5:30
영화진흥위원회,부산광역시 해운대구청,부산광역시 해운대구,2022-12-31,35.16852,129.178032,,2023-07-01 5:30
예능어린이집,부산광역시 동래구청,부산광역시 동래구,2022-12-31,35.20515399,129.086714,,2023-07-01 5:30
예닮창의어린이집,부산광역시 사하구청,부산광역시 사하구,2022-12-31,35.06601031,128.9805677,,2023-07-01 5:30
예담어린이집,부산광역시 북구청,부산광역시 북구,2022-12-31,35.20551564,129.0094738,,2023-07-01 5:30
예사랑병원,부산광역시 서구청,부산광역시 서구,2022-12-31,35.09733548,129.0132413,,2023-07-01 5:30
예지어린이집,부산광역시 연제구청,부산광역시 연제구,2022-12-31,35.18300891,129.0693021,,2023-07-01 5:30
예진 어린이집,부산광역시 해운대구청,부산광역시 해운대구,2022-12-31,35.161068,129.161431,,2023-07-01 5:30
예향어린이집,부산광역시 연제구청,부산광역시 연제구,2022-12-31,35.19392626,129.0843132,,2023-07-01 5:30
오성병원,부산광역시 부산진구청,부산진구,2023-01-11,35.1707116,129.0713869,,2023-07-01 5:30
오션타워,부산광역시 해운대구청,부산광역시 해운대구,2022-12-31,35.166897,129.133824,,2023-07-01 5:30
오시리아스퀘어,부산광역시 기장군청,부산광역시 기장군,2023-01-01,35.1885111,129.2120281,,2023-07-01 5:30
오시리아스퀘어,부산광역시 기장군청,부산광역시 기장군,2023-01-01,35.1885111,129.2120281,,2023-07-01 5:30
오시리아테마파크판매시설(A동),부산광역시 기장군청,부산광역시 기장군,2023-01-01,35.1928286,129.2149547,,2023-07-01 5:30
오시리아테마파크판매시설(B동),부산광역시 기장군청,부산광역시 기장군,2023-01-01,35.1928286,129.2149547,,2023-07-01 5:30
오아시스사우나,부산광역시 북구청,부산광역시 북구,2022-12-31,35.23564852,129.0102848,,2023-07-01 5:30
오엑스 피시 동아대점,,,,부산 사하구 낙동대로 551,,,
오엑스피시 수영교차로점,,,,부산 수영구 연수로 386,,,
오즈어린이집,부산광역시 기장군청,부산광역시 기장군,2023-01-01,35.3335263,129.1724198,,2023-07-01 5:30
옥스PC 못골점,,,,부산 남구 못골로41번길 6,,,
옥스PC 사상역점,부산광역시 사상구청,부산광역시 사상구,2022-12-31,35.16271054,128.9847059,,2023-07-01 5:30
옥스PC방,,,,부산 금정구 금강로 271-5,,,
옥스PC하단역점,,,,부산 사하구 낙동대로 466 2층,,,
온누리요양원,부산광역시 기장군청,부산광역시 기장군,2023-01-01,35.224624,129.153682,,2023-07-01 5:30
온사랑병원,부산광역시 금정구청,부산광역시 금정구,2022-12-31,35.214346,129.108185,,2023-07-01 5:30
온아이어린이집,부산광역시 수영구청,부산광역시 수영구,2022-12-31,35.16722001,129.1099518,,2023-07-01 5:30
올레PC,,,,부산 기장군 정관읍 정관로 575-3,,,
와이비엠부산광복일어중국어학원,부산광역시 중구청,부산광역시 중구,2023-01-01,35.09885,129.03517,,2023-07-01 5:30
욜로PC방,,,,부산 사상구 낙동대로 786,,,
용당어린이집,부산광역시 남구청,부산광역시 남구,2023-01-16,129.0930514,35.11343458,,2023-07-01 5:30
용당요양병원,부산광역시 남구청,부산광역시 남구,2023-01-16,129.099122,35.12353834,,2023-07-01 5:30
우리들어린이집,부산광역시 동래구청,부산광역시 동래구,2022-12-31,35.1969623,129.1034277,,2023-07-01 5:30
우리미소요양병원,부산광역시 사하구청,부산광역시 사하구,2022-12-31,35.05588428,128.9708874,,2023-07-01 5:30
우리병원,,,,"부산 사상구 사상로 237 1,3~5층",,,
우리행복요양병원,부산광역시 연제구청,부산광역시 연제구,2022-12-31,35.18304408,129.1074663,,2023-07-01 5:30
우방아이유쉘어린이집,,,,부산 강서구 화전산단4로 74,,,
우신상가,부산광역시 사상구청,부산광역시 사상구,2022-12-31,35.18509326,128.9914513,,2023-07-01 5:30
우정요양병원,,,,"부산 해운대구 좌동순환로 247 유안메디파크빌딩 2, 6~9층",,,
우주PC방,,,,부산 사상구 광장로 62 지하1층,,,
울트라PC,부산광역시 해운대구청,부산광역시 해운대구,2022-12-31,35.189672,129.126824,,2023-07-01 5:30
울트라타워,부산광역시 해운대구청,부산광역시 해운대구,2022-12-31,35.15994,129.157919,,2023-07-01 5:30
웅신시네아트,부산광역시 해운대구청,부산광역시 해운대구,2022-12-31,35.173014,129.175371,,2023-07-01 5:30
워크재활의학과병원,부산광역시 연제구청,부산광역시 연제구,2022-12-31,35.18677031,129.0841961,,2023-07-01 5:30
워터캐슬사우나음이온찜질방24헬쓰,부산광역시 부산진구청,부산진구,2023-01-11,35.14894,129.0197498,,2023-07-01 5:30
원앤원스카이기숙학원,부산광역시 기장군청,부산광역시 기장군,2023-01-01,35.320736,129.1790795,,2023-07-01 5:30
월드밸리,부산광역시 중구청,부산광역시 중구,2022-12-31,35.102804,129.026363,,2023-07-01 5:30
웨이브타운,부산광역시 해운대구청,부산광역시 해운대구,2022-12-31,35.166196,129.169031,,2023-07-01 5:30
웰니스병원,부산광역시 연제구청,부산광역시 연제구,2022-12-31,35.18899031,129.0859165,,2023-07-01 5:30
웰하이여성아동병원,,,,"부산 강서구 명지오션시티4로 95 2~8,10층",,,
위대한탄생산후조리원,부산광역시 연제구청,부산광역시 연제구,2022-12-31,35.18485049,129.080152,,2023-07-01 5:30
위대한탄생여성병원,부산광역시 연제구청,부산광역시 연제구,2022-12-31,35.18485049,129.080152,,2023-07-01 5:30
위대항병원,부산광역시 남구청,부산광역시 남구,2023-01-16,129.0929499,35.13537544,,2023-07-01 5:30
위브마음어린이집,,,,부산 해운대구 좌동순환로433번길 30 해운대힐스테이트위브 202동 1층,,,
윌리스요양병원,부산광역시 남구청,부산광역시 남구,2023-01-16,129.086552,35.13531587,,2023-07-01 5:30
유엔평화기념관,부산광역시 남구청,부산광역시 남구,2023-01-16,129.0932577,35.12475424,,2023-07-01 5:30
유원골든타워 오피스텔,,,,부산 부산진구 서면문화로 27,,,
윤금노인요양원,부산광역시 사상구청,부산광역시 사상구,2022-12-31,35.15016239,128.9929812,,2023-07-01 5:30
율리역,부산광역시 북구청,부산광역시 북구,2022-12-31,35.24716879,129.0129178,,2023-07-01 5:30
으뜸어린이집,부산광역시 서구청,부산광역시 서구,2022-12-31,35.10019306,129.0158686,,2023-07-01 5:30
으뜸요양병원,부산광역시 동래구청,부산광역시 동래구,2022-12-31,35.20596636,129.0734692,,2023-07-01 5:30
을숙도노인요양원,부산광역시 강서구청,강서구,2022-12-22,35.11161,128.92351,,2023-07-01 5:30
의료법인 갑을의료재단 갑을녹산병원,부산광역시 강서구청,강서구,2022-12-22,35.17271,128.94573,,2023-07-01 5:30
의료법인 강혜의료재단 사랑의요양병원,부산광역시 사상구청,부산광역시 사상구,2022-12-31,35.13164809,128.9728013,,2023-07-01 5:30
의료법인 강혜의료재단온천사랑의요양병원,부산광역시 동래구청,부산광역시 동래구,2022-12-31,35.21911149,129.0802219,,2023-07-01 5:30
의료법인 길정의료재단 길정병원,,,,"부산 사상구 학감대로39번길 120 A동 지하1~ 지상4층, B동 지상1~2층, D동 지상1~지상4층",,,
의료법인 길정의료재단 대남병원,부산광역시 사상구청,부산광역시 사상구,2022-12-31,35.13201442,128.9961328,,2023-07-01 5:30
의료법인 노송의료재단 시티요양병원,부산광역시 사상구청,부산광역시 사상구,2022-12-31,35.18733901,128.9900192,,2023-07-01 5:30
의료법인 대성사랑의료재단 제일요양병원,부산광역시 금정구청,부산광역시 금정구,2022-12-31,35.218307,129.100993,,2023-07-01 5:30
의료법인 동일의료재단 금정나라요양병원,부산광역시 금정구청,부산광역시 금정구,2022-12-31,35.243876,129.093853,,2023-07-01 5:30
의료법인 사랑나눔의료재단 에보스요양병원,부산광역시 부산진구청,부산진구,2023-01-11,35.1584256,129.0617872,,2023-07-01 5:30
의료법인 삼세의료재단 삼세한방병원,부산광역시 금정구청,부산광역시 금정구,2022-12-31,35.225558,129.089381,,2023-07-01 5:30
의료법인 상봉의료재단 상봉요양병원,부산광역시 부산진구청,부산진구,2023-01-11,35.1473587,129.0608236,,2023-07-01 5:30
의료법인 선우의료재단 BHS동래한서요양병원,부산광역시 금정구청,부산광역시 금정구,2022-12-31,35.242979,129.095681,,2023-07-01 5:30
의료법인 세광의료재단 성모안과병원,부산광역시 해운대구청,부산광역시 해운대구,2022-12-31,35.174705,129.128009,,2023-07-01 5:30
의료법인 센텀의료재단 부산센텀병원,,,,"부산 수영구 수영로 677 지하1층,1~6층",,,
의료법인 영파의료재단 규림요양병원,부산광역시 금정구청,부산광역시 금정구,2022-12-31,35.230786,129.076176,,2023-07-01 5:30
의료법인 영파의료재단 마음향기병원,부산광역시 금정구청,부산광역시 금정구,2022-12-31,35.230816,129.077101,,2023-07-01 5:30
의료법인 은성의료재단 좋은강안병원,부산광역시 수영구청,부산광역시 수영구,2022-12-31,35.15016884,129.1105978,,2023-07-01 5:30
의료법인 은성의료재단 좋은부산요양병원,부산광역시 사상구청,부산광역시 사상구,2022-12-31,35.13373016,128.9963741,,2023-07-01 5:30
의료법인 은성의료재단 좋은주례요양병원,부산광역시 사상구청,부산광역시 사상구,2022-12-31,35.15007271,129.0014641,,2023-07-01 5:30
의료법인 인당의료재단 해운대부민병원,부산광역시 해운대구청,부산광역시 해운대구,2022-12-31,35.162351,129.161296,,2023-07-01 5:30
의료법인 인본의료재단 해운대자명병원,부산광역시 해운대구청,부산광역시 해운대구,2022-12-31,35.164176,129.154102,,2023-07-01 5:30
의료법인 좋은사람들의료재단 관자재요양병원,부산광역시 금정구청,부산광역시 금정구,2022-12-31,35.261518,129.093663,,2023-07-01 5:30
의료법인 천지의료재단 금샘요양병원,부산광역시 금정구청,부산광역시 금정구,2022-12-31,35.27682,129.088285,,2023-07-01 5:30
의료법인 청십자의료재단 행복한병원,,,,의료법인 청십자의료재단 행복한병원,,,
의료법인 청원의료재단 수요양병원,부산광역시 부산진구청,부산진구,2023-01-11,35.1689518,129.0490195,,2023-07-01 5:30
의료법인 한세의료재단 효은요양병원,부산광역시 해운대구청,부산광역시 해운대구,2022-12-31,35.169686,129.177688,,2023-07-01 5:30
의료법인 해림의료재단 부산금사요양병원,,,,부산 금정구 반송로 470 2~7층,,,
의료법인 해올의료재단 힐마루요양병원,부산광역시 해운대구청,부산광역시 해운대구,2022-12-31,35.172654,129.131001,,2023-07-01 5:30
의료법인 화인의료재단 센텀화인요양병원,부산광역시 해운대구청,부산광역시 해운대구,2022-12-31,35.165689,129.134636,,2023-07-01 5:30
의료법인 효원의료재단 주례자연병원,부산광역시 사상구청,부산광역시 사상구,2022-12-31,35.14955361,128.9996321,,2023-07-01 5:30
의료법인 희경의료재단 한국요양병원,부산광역시 사상구청,부산광역시 사상구,2022-12-31,35.16328713,128.9804389,,2023-07-01 5:30
의료법인동일의료재단수영나라요양병원,부산광역시 수영구청,부산광역시 수영구,2022-12-31,35.16833407,129.113293,,2023-07-01 5:30
의료법인백세의료재단백세요양병원,부산광역시 수영구청,부산광역시 수영구,2022-12-31,35.1614667,129.1092369,,2023-07-01 5:30
의료법인서강의료재단 서강병원,,,,"부산 동구 중앙대로 514 한성기린플라자 상가 2,3층",,,
의료법인세왕의료재단 세왕요양병원,부산광역시 금정구청,부산광역시 금정구,2022-12-31,35.222522,129.085966,,2023-07-01 5:30
의료법인센텀의료재단 서부산센텀병원,부산광역시 사상구청,부산광역시 사상구,2022-12-31,35.16121203,128.9845543,,2023-07-01 5:30
의료법인영재의료재단 큰솔2병원,부산광역시 사상구청,부산광역시 사상구,2022-12-31,35.14360299,128.9872501,,2023-07-01 5:30
의료법인영재의료재단 큰솔병원,부산광역시 사상구청,부산광역시 사상구,2022-12-31,35.1407168,128.9824424,,2023-07-01 5:30
의료법인은성의료재단좋은삼선병원,부산광역시 사상구청,부산광역시 사상구,2022-12-31,35.1501222,129.0076923,,2023-07-01 5:30
의료법인주현의료재단사상중앙병원,부산광역시 사상구청,부산광역시 사상구,2022-12-31,35.1784013,128.9782163,,2023-07-01 5:30
의료법인지석의료재단 효성프라임요양병원,부산광역시 사상구청,부산광역시 사상구,2022-12-31,35.17495985,128.9886828,,2023-07-01 5:30
의료재단  로뎀요양병원,부산광역시 해운대구청,부산광역시 해운대구,2022-12-31,35.168185,129.17786,,2023-07-01 5:30
의왕요양병원,부산광역시 사하구청,부산광역시 사하구,2022-12-31,35.0685972,128.9772437,,2023-07-01 5:30
이룸제이타워,부산광역시 해운대구청,부산광역시 해운대구,2022-12-31,35.192111,129.134523,,2023-07-01 5:30
이마트 트레이더스 서면점,부산광역시 부산진구청,부산진구,2023-01-11,35.1639096,129.0525986,,2023-07-01 5:30
이마트 트레이더스 연산점 챔피언 더 블랙벨트,,,,부산 연제구 좌수영로 241 1층,,,
이마트연제점,부산광역시 연제구청,부산광역시 연제구,2022-12-31,35.17615076,129.0813103,,2023-07-01 5:30
이마트연제점,부산광역시 연제구청,부산광역시 연제구,2022-12-31,35.17615076,129.0813103,,2023-07-01 5:30
이마트해운대점,부산광역시 해운대구청,부산광역시 해운대구,2022-12-31,35.170832,129.177112,,2023-07-01 5:30
이마트해운대점,부산광역시 해운대구청,부산광역시 해운대구,2022-12-31,35.185437,129.121455,,2023-07-01 5:30
이비스 앰배서더 부산 해운대,부산광역시 해운대구청,부산광역시 해운대구,2022-12-31,35.17006,129.128355,,2023-07-01 5:30
이삭어린이집,,,,부산 사하구 괴정로246번길 11,,,
이샘병원,부산광역시 부산진구청,부산진구,2023-01-11,35.1476675,129.0611104,,2023-07-01 5:30
이안해운대오피스텔,부산광역시 해운대구청,부산광역시 해운대구,2022-12-31,35.167715,129.140752,,2023-07-01 5:30
이의용밝은길요양병원,부산광역시 서구청,부산광역시 서구,2022-12-31,35.11226062,129.0197122,,2023-07-01 5:30
이진용맘병원,,,,부산 연제구 거제대로 295 주성산빌딩 8~11층,,,
이케아 다기스(동부산) 어린이집,부산광역시 기장군청,부산광역시 기장군,2023-01-01,35.1902886,129.2102723,,2023-07-01 5:30
이케아 동부산점,부산광역시 기장군청,부산광역시 기장군,2023-01-01,35.19028489,129.2102711,,2023-07-01 5:30
이화어린이집,부산광역시 사하구청,부산광역시 사하구,2022-12-31,35.0885816,128.9949413,,2023-07-01 5:30
인제대학교 해운대백병원,부산광역시 해운대구청,부산광역시 해운대구,2022-12-31,35.164126,129.138223,,2023-07-01 5:30
인제대학교 해운대백병원,부산광역시 해운대구청,부산광역시 해운대구,2022-12-31,35.168987,129.175772,,2023-07-01 5:30
인제대학교부산백병원,부산광역시 부산진구청,부산진구,2023-01-11,35.1462564,129.0208401,,2023-07-01 5:30
인제요양병원,부산광역시 영도구청,부산광역시 영도구,2022-12-31,35.09241324,129.0400543,,2023-07-01 5:30
인창노인의료센터,부산광역시 동구청,부산광역시 동구,2021-01-21,35.122455,129.043046,,2023-07-01 5:30
인창대연요양병원,부산광역시 남구청,부산광역시 남구,2023-01-16,129.0845986,35.13446805,,2023-07-01 5:30
인창서구그린빌노인요양원,부산광역시 서구청,부산광역시 서구,2022-12-31,35.11515064,129.0165387,,2023-07-01 5:30
인창실버웰,부산광역시 사하구청,부산광역시 사하구,2022-12-31,35.0937992,128.9841032,,2023-07-01 5:30
인창요양병원,부산광역시 동구청,부산광역시 동구,2021-01-21,35.121877,129.042858,,2023-07-01 5:30
일광어린이집,부산광역시 기장군청,부산광역시 기장군,2023-01-01,35.2652367,129.2375162,,2023-07-01 5:30
일신기독병원 산후조리원,부산광역시 동구청,부산광역시 동구,2021-01-21,35.13546,129.05476,,2023-07-01 5:30
일신기독병원(의료),부산광역시 동구청,부산광역시 동구,2021-01-21,35.135549,129.054119,,2023-07-01 5:30
일신기독병원(주차장),부산광역시 동구청,부산광역시 동구,2021-01-21,35.135469,129.054803,,2023-07-01 5:30
일제강제동원역사관,부산광역시 남구청,부산광역시 남구,2023-01-16,129.0920694,35.12450357,,2023-07-01 5:30
자갈치시장,부산광역시 중구청,부산광역시 중구,2022-12-31,35.09663058,129.0305745,,2023-07-01 5:30
자갈치시장 실내주차장,부산광역시 중구청,부산광역시 중구,2022-12-31,35.09663058,129.0305745,,2023-07-01 5:30
자갈치역,부산광역시 중구청,부산광역시 중구,2022-12-31,35.09775971,129.027112,,2023-07-01 5:30
자드PC,,,,부산 연제구 거제천로 94 4층,,,
자드PC방,,,,부산 부산진구 신천대로50번길 68 2층,,,
자연꿈나무 어린이집,부산광역시 해운대구청,부산광역시 해운대구,2022-12-31,35.166861,129.133242,,2023-07-01 5:30
자연요양병원,부산광역시 사하구청,부산광역시 사하구,2022-12-31,35.07412507,128.9769698,,2023-07-01 5:30
자유시장,부산광역시 동구청,부산광역시 동구,2021-01-21,35.140991,129.061106,,2023-07-01 5:30
장덕한방병원,부산광역시 서구청,부산광역시 서구,2022-12-31,35.10417135,129.0202877,,2023-07-01 5:30
장림어린이집,부산광역시 사하구청,부산광역시 사하구,2022-12-31,35.0791915,128.967929,,2023-07-01 5:30
장림한서병원,부산광역시 사하구청,부산광역시 사하구,2022-12-31,35.09051533,128.9987484,,2023-07-01 5:30
장림현대종합상가,부산광역시 사하구청,부산광역시 사하구,2022-12-31,35.07505997,128.977288,,2023-07-01 5:30
장산역,부산광역시 해운대구청,부산광역시 해운대구,2022-12-31,35.16016,129.164679,,2023-07-01 5:30
장선어린이집,부산광역시 북구청,부산광역시 북구,2022-12-31,35.19426533,129.0086898,,2023-07-01 5:30
장안어린이집,부산광역시 기장군청,부산광역시 기장군,2023-01-01,35.3171626,129.2590714,,2023-07-01 5:30
장전제일교회어린이집,부산광역시 금정구청,부산광역시 금정구,2022-12-31,35.229024,129.08639,,2023-07-01 5:30
장한어린이집,부산광역시 수영구청,부산광역시 수영구,2022-12-31,35.1636495,129.1110448,,2023-07-01 5:30
재능어린이집,부산광역시 해운대구청,부산광역시 해운대구,2022-12-31,35.170027,129.131141,,2023-07-01 5:30
재단법인 금성재단 강림요양병원,부산광역시 사상구청,부산광역시 사상구,2022-12-31,35.13127964,128.9728208,,2023-07-01 5:30
재단법인 자생의료재단 해운대자생한방병원,부산광역시 해운대구청,부산광역시 해운대구,2022-12-31,35.171737,129.138559,,2023-07-01 5:30
재송 어린이집,부산광역시 해운대구청,부산광역시 해운대구,2022-12-31,35.16145,129.147776,,2023-07-01 5:30
전원어린이집,부산광역시 기장군청,부산광역시 기장군,2023-01-01,35.2555457,129.2131871,,2023-07-01 5:30
전포동연수어린이집,부산광역시 부산진구청,부산진구,2023-01-11,35.1543202,129.0675925,,2023-07-01 5:30
전포역,부산광역시 부산진구청,부산진구,2023-01-11,35.159791,129.066991,,2023-07-01 5:30
전포역,부산광역시 부산진구청,부산진구,2023-01-11,35.16263953,129.0505507,,2023-07-01 5:30
정관8어린이집,부산광역시 기장군청,부산광역시 기장군,2023-01-01,35.3128436,129.1731696,,2023-07-01 5:30
정관도서관,부산광역시 기장군청,부산광역시 기장군,2023-01-01,35.3279169,129.1817747,,2023-07-01 5:30
정관박물관,부산광역시 기장군청,부산광역시 기장군,2023-01-01,35.3279169,129.1817747,,2023-07-01 5:30
정관보건지소,부산광역시 기장군청,부산광역시 기장군,2023-01-01,35.3302876,129.171602,,2023-07-01 5:30
정관산업단지 공동직장 어린이집,부산광역시 기장군청,부산광역시 기장군,2023-01-01,35.31742069,129.1863713,,2023-07-01 5:30
정관아이비어린이집,부산광역시 기장군청,부산광역시 기장군,2023-01-01,35.3233647,129.1848346,,2023-07-01 5:30
정관옥스퍼드어린이집,부산광역시 기장군청,부산광역시 기장군,2023-01-01,35.3320107,129.1779611,,2023-07-01 5:30
정관온천,부산광역시 기장군청,부산광역시 기장군,2023-01-01,35.3225678,129.1778837,,2023-07-01 5:30
정요양병원,부산광역시 영도구청,부산광역시 영도구,2022-12-31,35.09169757,129.0390717,,2023-07-01 5:30
정요양병원 장례식장,부산광역시 영도구청,부산광역시 영도구,2022-12-31,35.09169757,129.0390717,,2023-07-01 5:30
정한방병원,,,,"부산 연제구 월드컵대로 125 더웰타워 6, 9~11층 602호",,,
정향행복한마을,부산광역시 사상구청,부산광역시 사상구,2022-12-31,35.16763731,128.988192,,2023-07-01 5:30
정화노인요양원,부산광역시 북구청,부산광역시 북구,2022-12-31,35.24394075,129.0194387,,2023-07-01 5:30
제노스PC,,,,부산 사하구 신산로 187,,,
제니스스퀘어,부산광역시 해운대구청,부산광역시 해운대구,2022-12-31,35.167137,129.132977,,2023-07-01 5:30
제니스스퀘어,부산광역시 해운대구청,부산광역시 해운대구,2022-12-31,35.181143,129.198055,,2023-07-01 5:30
제니스파크요양병원,부산광역시 남구청,부산광역시 남구,2023-01-16,129.0745099,35.12659872,,2023-07-01 5:30
제스트PC,,,,부산 부산진구 중앙대로691번길 46 건문빌딩 2층,,,
제일나라요양병원,부산광역시 동구청,부산광역시 동구,2021-01-21,35.13227,129.051881,,2023-07-01 5:30
제일산후조리원,부산광역시 해운대구청,부산광역시 해운대구,2022-12-31,35.158465,129.146441,,2023-07-01 5:30
제일어린이집,부산광역시 강서구청,강서구,2022-12-22,35.08044,128.90393,,2023-07-01 5:30
제일여성병원,부산광역시 해운대구청,부산광역시 해운대구,2022-12-31,35.167777,129.145345,,2023-07-01 5:30
제일행복한어린이집,부산광역시 북구청,부산광역시 북구,2022-12-31,35.21201155,129.0220132,,2023-07-01 5:30
젠PC방,,,,부산 금정구 서동로176번길 9 4층,,,
조방해수탕,부산광역시 부산진구청,부산진구,2023-01-11,35.1418595,129.0626584,,2023-07-01 5:30
조은어린이집,부산광역시 사하구청,부산광역시 사하구,2022-12-31,35.08160532,128.965918,,2023-07-01 5:30
조이효요양병원,부산광역시 사하구청,부산광역시 사하구,2022-12-31,35.09059355,128.9991003,,2023-07-01 5:30
종단대순진리회,부산광역시 부산진구청,부산진구,2023-01-11,35.1729743,129.0685808,,2023-07-01 5:30
종달새어린이집,부산광역시 사하구청,부산광역시 사하구,2022-12-31,35.10649577,128.9746033,,2023-07-01 5:30
좋은강안병원 실내주차장,부산광역시 수영구청,부산광역시 수영구,2022-12-31,35.15016884,129.1105978,,2023-07-01 5:30
좋은강안병원 장례식장,부산광역시 수영구청,부산광역시 수영구,2022-12-31,35.15016884,129.1105978,,2023-07-01 5:30
좋은날에 드라마산후조리원,부산광역시 동래구청,부산광역시 동래구,2022-12-31,35.19606805,129.1075774,,2023-07-01 5:30
좋은날에 드라마여성병원,부산광역시 동래구청,부산광역시 동래구,2022-12-31,35.19606805,129.1075774,,2023-07-01 5:30
좋은리버뷰요양병원,부산광역시 북구청,부산광역시 북구,2022-12-31,35.25959113,129.0138028,,2023-07-01 5:30
좋은문화병원,부산광역시 동구청,부산광역시 동구,2021-01-21,35.140819,129.058983,,2023-07-01 5:30
좋은문화병원 산후조리원,부산광역시 동구청,부산광역시 동구,2021-01-21,35.140737,129.058621,,2023-07-01 5:30
좋은삼선병원,부산광역시 사상구청,부산광역시 사상구,2022-12-31,35.1501222,129.0076923,,2023-07-01 5:30
좋은장례식장,부산광역시 북구청,부산광역시 북구,2022-12-31,35.25959113,129.0138028,,2023-07-01 5:30
㈜ 이마트 문현점,부산광역시 남구청,부산광역시 남구,2023-01-16,129.0642407,35.14430272,,2023-07-01 5:30
㈜LG화학 과학관,부산광역시 부산진구청,부산진구,2023-01-11,35.1728887,129.049646,,2023-07-01 5:30
주례고운어린이집,부산광역시 사상구청,부산광역시 사상구,2022-12-31,35.1477975,128.9990641,,2023-07-01 5:30
주례지하철역,부산광역시 사상구청,부산광역시 사상구,2022-12-31,35.15050465,129.0031371,,2023-07-01 5:30
주례초등학교 지하공영주차장,부산광역시 부산진구청,부산진구,2023-01-11,35.1455297,129.0186756,,2023-07-01 5:30
주례현대무지개 상가,부산광역시 사상구청,부산광역시 사상구,2022-12-31,35.14618179,129.0052027,,2023-07-01 5:30
㈜서원유통 탑마트 신평점 ,부산광역시 사하구청,부산광역시 사하구,2022-12-31,35.09712033,128.9623063,,2023-07-01 5:30
주성산빌딩,부산광역시 연제구청,부산광역시 연제구,2022-12-31,35.19248531,129.078123,,2023-07-01 5:30
㈜센츄리스포렉스,부산광역시 남구청,부산광역시 남구,2023-01-16,129.1006196,35.13698252,,2023-07-01 5:30
㈜스포케이,부산광역시 금정구청,부산광역시 금정구,2022-12-31,35.25389,129.089009,,2023-07-01 5:30
㈜시민장례식장,부산광역시 부산진구청,부산진구,2023-01-11,35.1416249,129.0632007,,2023-07-01 5:30
주식회사 씨제이헬로비전,부산광역시 부산진구청,부산진구,2023-01-11,35.1555819,129.0646456,,2023-07-01 5:30
주식회사 애플아울렛,부산광역시 사상구청,부산광역시 사상구,2022-12-31,35.16314616,128.9809858,,2023-07-01 5:30
주식회사 이지네트웍스,부산광역시 동구청,부산광역시 동구,2021-01-21,35.139246,129.062724,,2023-07-01 5:30
㈜신세계이마트 사상점,부산광역시 사상구청,부산광역시 사상구,2022-12-31,35.16423654,128.9788887,,2023-07-01 5:30
㈜아모레퍼시픽,부산광역시 동구청,부산광역시 동구,2021-01-21,35.121343,129.043482,,2023-07-01 5:30
㈜에디스산후조리원,부산광역시 사하구청,부산광역시 사하구,2022-12-31,35.10160307,128.9777149,,2023-07-01 5:30
주영어린이집,부산광역시 동래구청,부산광역시 동래구,2022-12-31,35.20850584,129.099817,,2023-07-01 5:30
㈜이랜드파크켄싱턴리조트 해운대 (구 글로리콘도호텔),부산광역시 해운대구청,부산광역시 해운대구,2022-12-31,35.159594,129.157428,,2023-07-01 5:30
㈜장연빌딩,부산광역시 연제구청,부산광역시 연제구,2022-12-31,35.18776025,129.0793342,,2023-07-01 5:30
㈜태종대온천,부산광역시 영도구청,부산광역시 영도구,2022-12-31,35.06465393,129.080315,,2023-07-01 5:30
㈜파라다이스호텔,부산광역시 해운대구청,부산광역시 해운대구,2022-12-31,35.158323,129.175526,,2023-07-01 5:30
㈜파라다이스호텔,부산광역시 해운대구청,부산광역시 해운대구,2022-12-31,35.18339,129.202992,,2023-07-01 5:30
㈜한양프라자부산점,부산광역시 연제구청,부산광역시 연제구,2022-12-31,35.19648677,129.0812287,,2023-07-01 5:30
㈜한진중공업 R＆D센터 주차장,부산광역시 중구청,부산광역시 중구,2022-12-31,35.10469628,129.0371258,,2023-07-01 5:30
㈜히어로플레이파크,,,,부산 기장군 정관읍 정관중앙로 45 탑스퀘어 5층,,,
준요양병원,부산광역시 동래구청,부산광역시 동래구,2022-12-31,35.19735279,129.0991504,,2023-07-01 5:30
중동역,부산광역시 해운대구청,부산광역시 해운대구,2022-12-31,35.17458,129.17636,,2023-07-01 5:30
중앙U병원,부산광역시 사하구청,부산광역시 사하구,2022-12-31,35.11393784,128.9626579,,2023-07-01 5:30
중앙U병원 장례식장,부산광역시 사하구청,부산광역시 사하구,2022-12-31,35.09059355,128.9991003,,2023-07-01 5:30
중앙나라요양병원,부산광역시 중구청,부산광역시 중구,2022-12-31,35.1038415,129.0358864,,2023-07-01 5:30
중앙도서관,부산광역시 중구청,부산광역시 중구,2022-12-31,35.10997532,129.0269254,,2023-07-01 5:30
중앙동역,부산광역시 중구청,부산광역시 중구,2022-12-31,35.10201442,129.0313444,,2023-07-01 5:30
중앙몰 (롯데백화점 지하상가에서 변경),부산광역시 부산진구청,부산진구,2023-01-11,35.1579611,129.0566708,,2023-07-01 5:30
중앙효요양병원,부산광역시 사하구청,부산광역시 사하구,2022-12-31,35.08770021,129.005612,,2023-07-01 5:30
쥬디스태화(본관),부산광역시 부산진구청,부산진구,2023-01-11,35.1549453,129.0597401,,2023-07-01 5:30
쥬디스태화(신관),부산광역시 부산진구청,부산진구,2023-01-11,35.1552641,129.0606925,,2023-07-01 5:30
쥬디스태화관리㈜신관,부산광역시 부산진구청,부산진구,2023-01-11,35.1552641,129.0606925,,2023-07-01 5:30
지오플레이스,부산광역시 부산진구청,부산진구,2023-01-11,35.1495471,129.0648567,,2023-07-01 5:30
지온병원,부산광역시 금정구청,부산광역시 금정구,2022-12-31,35.22375,129.08579,,2023-07-01 5:30
지하철 경성대,,,,부산 남구 수영로 지하 324,,,
지하철 동대신동역,부산광역시 서구청,부산광역시 서구,2022-12-31,35.11048779,129.0176208,,2023-07-01 5:30
지하철 범일동역,부산광역시 동구청,부산광역시 동구,2021-01-21,35.140026,129.059363,,2023-07-01 5:30
지하철 부산역,부산광역시 동구청,부산광역시 동구,2021-01-21,35.114009,129.039061,,2023-07-01 5:30
지하철 부산진역,부산광역시 동구청,부산광역시 동구,2021-01-21,35.128074,129.048286,,2023-07-01 5:30
지하철 서대신동역,부산광역시 서구청,부산광역시 서구,2022-12-31,35.11090285,129.0121752,,2023-07-01 5:30
지하철 좌천동역,부산광역시 동구청,부산광역시 동구,2021-01-21,35.134435,129.054447,,2023-07-01 5:30
지하철 초량역,부산광역시 동구청,부산광역시 동구,2021-01-21,35.119174,129.041702,,2023-07-01 5:30
지하철 토성동역,부산광역시 서구청,부산광역시 서구,2022-12-31,35.10070702,129.0197861,,2023-07-01 5:30
지하철거제역,부산광역시 연제구청,부산광역시 연제구,2022-12-31,35.18854719,129.0739644,,2023-07-01 5:30
지하철교대역,부산광역시 연제구청,부산광역시 연제구,2022-12-31,35.19642733,129.0798113,,2023-07-01 5:30
지하철물만골역,부산광역시 연제구청,부산광역시 연제구,2022-12-31,35.17676124,129.0856109,,2023-07-01 5:30
지하철배산역,부산광역시 연제구청,부산광역시 연제구,2022-12-31,35.17346104,129.0957325,,2023-07-01 5:30
지하철시청역,부산광역시 연제구청,부산광역시 연제구,2022-12-31,35.17978006,129.0766266,,2023-07-01 5:30
지하철연산역(1호선),부산광역시 연제구청,부산광역시 연제구,2022-12-31,35.18607327,129.0815078,,2023-07-01 5:30
지하철연산역(3호선),부산광역시 연제구청,부산광역시 연제구,2022-12-31,35.18607327,129.0815078,,2023-07-01 5:30
지하철종합운동장역,부산광역시 연제구청,부산광역시 연제구,2022-12-31,35.16234619,129.0552558,,2023-07-01 5:30
진성어린이집,부산광역시 사하구청,부산광역시 사하구,2022-12-31,35.10046274,129.0036082,,2023-07-01 5:30
차타타 부산 기장점 키즈카페,부산광역시 기장군청,부산광역시 기장군,2023-01-01,35.31246958,129.1954398,,2023-07-01 5:30
찬란한PC방,부산광역시 사상구청,부산광역시 사상구,2022-12-31,35.16365141,128.9843903,,2023-07-01 5:30
참사랑노인건강센터,부산광역시 강서구청,강서구,2022-12-22,35.18002,128.95738,,2023-07-01 5:30
참사랑요양원,부산광역시 사하구청,부산광역시 사하구,2022-12-31,35.08123157,128.9776688,,2023-07-01 5:30
참요양병원,,,,"부산 부산진구 가야대로 451 6,7,8층",,,
참조은실버요양원,부산광역시 사상구청,부산광역시 사상구,2022-12-31,35.1580416,128.99117,,2023-07-01 5:30
참조은어린이집,부산광역시 기장군청,부산광역시 기장군,2023-01-01,35.2511963,129.2143958,,2023-07-01 5:30
창선상가,부산광역시 중구청,부산광역시 중구,2022-12-31,35.0997055,129.0283209,,2023-07-01 5:30
창신 어린이집,부산광역시 해운대구청,부산광역시 해운대구,2022-12-31,35.156637,129.152148,,2023-07-01 5:30
창의글로벌어린이집,부산광역시 북구청,부산광역시 북구,2022-12-31,35.26750139,129.0184951,,2023-07-01 5:30
챔피언 해운대점 (주 플레이타임그룹),,,,부산 해운대구 해운대해변로 140 1층,,,
챔피언 허브스카이점,부산광역시 동래구청,부산광역시 동래구,2022-12-31,35.22129139,129.0856235,,2023-07-01 5:30
척시원병원,부산광역시 동구청,부산광역시 동구,2021-01-21,35.114483,129.038851,,2023-07-01 5:30
천마어린이집,부산광역시 서구청,부산광역시 서구,2022-12-31,35.08207591,129.017869,,2023-07-01 5:30
천사어린이집,부산광역시 남구청,부산광역시 남구,2023-01-16,129.0890119,35.15109516,,2023-07-01 5:30
천우빌딩(구 부산상록회관),부산광역시 동구청,부산광역시 동구,2021-01-21,35.13782,129.063991,,2023-07-01 5:30
청담자연어린이집,부산광역시 기장군청,부산광역시 기장군,2023-01-01,35.3351643,129.1726745,,2023-07-01 5:30
청록만덕실버센터,부산광역시 북구청,부산광역시 북구,2022-12-31,35.21233591,129.0407486,,2023-07-01 5:30
청림요양병원,부산광역시 사하구청,부산광역시 사하구,2022-12-31,35.10660075,128.964875,,2023-07-01 5:30
청맥병원,,,,부산 부산진구 중앙대로 716-1 지하1층~지상6층,,,
청솔어린이집,부산광역시 사하구청,부산광역시 사하구,2022-12-31,35.07750748,128.9789401,,2023-07-01 5:30
청솔어린이집,부산광역시 사상구청,부산광역시 사상구,2022-12-31,35.13941078,128.9788726,,2023-07-01 5:30
체담한방병원,,,,"부산 북구 만덕대로 23 뉴코아아울렛 11, 12층",,,
초록어린이집,부산광역시 사하구청,부산광역시 사하구,2022-12-31,35.09845527,128.9835122,,2023-07-01 5:30
초록어린이집,부산광역시 기장군청,부산광역시 기장군,2023-01-01,35.2520598,129.2148394,,2023-07-01 5:30
초원사랑어린이집,부산광역시 부산진구청,부산진구,2023-01-11,35.1569219,129.0419818,,2023-07-01 5:30
춘해병원,,,,부산 부산진구 중앙대로 605 1~9층,,,
충렬사역,부산광역시 동래구청,부산광역시 동래구,2022-12-31,35.20367126,129.0872104,,2023-07-01 5:30
충렬어린이집,부산광역시 해운대구청,부산광역시 해운대구,2022-12-31,35.217969,129.123927,,2023-07-01 5:30
칠암어린이집,부산광역시 기장군청,부산광역시 기장군,2023-01-01,35.2990057,129.2564053,,2023-07-01 5:30
캐니언파크 어린이놀이시설,부산광역시 남구청,부산광역시 남구,2023-01-16,129.0654779,35.14828501,,2023-07-01 5:30
케이티앤지 부산상상마당타워,부산광역시 부산진구청,부산진구,2023-01-11,35.1542841,129.0573158,,2023-07-01 5:30
케이티앤지 부산상상마당타워,부산광역시 부산진구청,부산진구,2023-01-11,35.1542841,129.0573158,,2023-07-01 5:30
코스트코부산점,부산광역시 수영구청,부산광역시 수영구,2022-12-31,35.17850156,129.1152652,,2023-07-01 5:30
코스트코부산점 주차장,부산광역시 수영구청,부산광역시 수영구,2022-12-31,35.17850156,129.1152652,,2023-07-01 5:30
코지PC,,,,부산 남구 용소로13번길 13,,,
코코몽 키즈랜드 부산대점,부산광역시 금정구청,부산광역시 금정구,2022-12-31,35.2329183,129.08246,,2023-07-01 5:30
퀸즈파크여성병원,,,,"부산 해운대구 해운대로 794 엘리움빌딩 10,11층",,,
퀸즈힐산후조리원,,,,부산 해운대구 해운대로 794 13층,,,
큐병원 (구.세양병원),부산광역시 사하구청,부산광역시 사하구,2022-12-31,35.0942754,128.9629967,,2023-07-01 5:30
큐비e센텀,부산광역시 해운대구청,부산광역시 해운대구,2022-12-31,35.17006,129.128355,,2023-07-01 5:30
큐엠시네마타워,,,,부산 기장군 정관읍 정관6로 39,,,
크라우드pc 부산화명점,,,,부산 북구 금곡대로303번길 22 정능빌딩 4층 404호,,,
큰사랑요양병원,부산광역시 사하구청,부산광역시 사하구,2022-12-31,35.10588993,128.9658428,,2023-07-01 5:30
키위키즈랜드,부산광역시 기장군청,부산광역시 기장군,2023-01-01,35.3211189,129.2355229,,2023-07-01 5:30
키즈몬,부산광역시 금정구청,부산광역시 금정구,2022-12-31,35.275246,129.091795,,2023-07-01 5:30
키즈아트어린이집,부산광역시 사하구청,부산광역시 사하구,2022-12-31,35.07614057,128.97854,,2023-07-01 5:30
키즈클럽해맑은어린이집,부산광역시 기장군청,부산광역시 기장군,2023-01-01,35.2384155,129.2215991,,2023-07-01 5:30
키즈킹덤어린이집,부산광역시 북구청,부산광역시 북구,2022-12-31,35.24174116,129.020758,,2023-07-01 5:30
타임요양병원,부산광역시 사하구청,부산광역시 사하구,2022-12-31,35.05213132,128.9712704,,2023-07-01 5:30
탑스퀘어,부산광역시 기장군청,부산광역시 기장군,2023-01-01,35.32119128,129.1782792,,2023-07-01 5:30
탑스퀘어,부산광역시 기장군청,부산광역시 기장군,2023-01-01,35.32119128,129.1782792,,2023-07-01 5:30
탑클래스PC방,,,,부산 사하구 제석로 99 2층,,,
태양어린이집,부산광역시 연제구청,부산광역시 연제구,2022-12-31,35.1819811,129.1093622,,2023-07-01 5:30
태영노블리안,부산광역시 동구청,부산광역시 동구,2021-01-21,35.112983,129.038221,,2023-07-01 5:30
태종대요양병원,부산광역시 영도구청,부산광역시 영도구,2022-12-31,35.06320282,129.0803646,,2023-07-01 5:30
태흥당한방병원,부산광역시 기장군청,부산광역시 기장군,2023-01-01,35.3251216,129.1794952,,2023-07-01 5:30
토곡어린이집,부산광역시 연제구청,부산광역시 연제구,2022-12-31,35.18649701,129.1054271,,2023-07-01 5:30
토끼와당근어린이집,부산광역시 연제구청,부산광역시 연제구,2022-12-31,35.18573275,129.1081726,,2023-07-01 5:30
토요코인 해운대-2 관광호텔,부산광역시 해운대구청,부산광역시 해운대구,2022-12-31,35.168614,129.131189,,2023-07-01 5:30
트럼프월드센텀2,부산광역시 해운대구청,부산광역시 해운대구,2022-12-31,35.173552,129.182194,,2023-07-01 5:30
트럼프월드센텀상가,부산광역시 해운대구청,부산광역시 해운대구,2022-12-31,35.210622,129.118466,,2023-07-01 5:30
트레이더스 연산점,부산광역시 연제구청,부산광역시 연제구,2022-12-31,35.18509414,129.1119518,,2023-07-01 5:30
트레이더스 연산점,부산광역시 연제구청,부산광역시 연제구,2022-12-31,35.18509414,129.1119518,,2023-07-01 5:30
파랑새노인건강센터,부산광역시 영도구청,부산광역시 영도구,2022-12-31,35.08595151,129.0596031,,2023-07-01 5:30
파랑새어린이집,부산광역시 강서구청,강서구,2022-12-22,35.08589,128.90735,,2023-07-01 5:30
파밀리에 펄시티,부산광역시 해운대구청,부산광역시 해운대구,2022-12-31,35.157326,129.142785,,2023-07-01 5:30
파크병원,부산광역시 사하구청,부산광역시 사하구,2022-12-31,35.10543098,129.0099324,,2023-07-01 5:30
파크사이드재활의학병원,부산광역시 남구청,부산광역시 남구,2023-01-16,129.0971472,35.12517876,,2023-07-01 5:30
파크하얏트부산,부산광역시 해운대구청,부산광역시 해운대구,2022-12-31,35.188858,129.126843,,2023-07-01 5:30
팔레드시즈콘도미니엄,부산광역시 해운대구청,부산광역시 해운대구,2022-12-31,35.167182,129.166939,,2023-07-01 5:30
팬오션(구.STX) 정오개발부산빌딩,부산광역시 중구청,부산광역시 중구,2022-12-31,35.84206262,128.5908727,,2023-07-01 5:30
평거요양병원,부산광역시 기장군청,부산광역시 기장군,2023-01-01,35.2373406,129.2143002,,2023-07-01 5:30
평화노인요양원(평화노인건강센터와 통합),부산광역시 사하구청,부산광역시 사하구,2022-12-31,35.10423738,128.9896474,,2023-07-01 5:30
포도원 드림센터,부산광역시 북구청,부산광역시 북구,2022-12-31,35.2476263,129.0157052,,2023-07-01 5:30
포천초교 공영주차장,부산광역시 북구청,부산광역시 북구,2022-12-31,35.19664206,129.0091031,,2023-07-01 5:30
푸르지오2차어린이집,부산광역시 서구청,부산광역시 서구,2022-12-31,35.10845673,129.0135889,,2023-07-01 5:30
푸른숲요양병원,,,,부산 금정구 금강로 592,,,
풀빛어린이집,부산광역시 해운대구청,부산광역시 해운대구,2022-12-31,35.170059,129.131102,,2023-07-01 5:30
풀잎 어린이집,부산광역시 해운대구청,부산광역시 해운대구,2022-12-31,35.205953,129.121738,,2023-07-01 5:30
풀잎어린이집,부산광역시 사하구청,부산광역시 사하구,2022-12-31,35.10395705,128.9764377,,2023-07-01 5:30
프라임병원,부산광역시 사하구청,부산광역시 사하구,2022-12-31,35.07426787,128.977147,,2023-07-01 5:30
프리마요양병원,부산광역시 연제구청,부산광역시 연제구,2022-12-31,35.18567511,129.0826883,,2023-07-01 5:30
플레이타임-롯데백화점-챔피온,부산광역시 부산진구청,부산진구,2023-01-11,35.1568526,129.0566466,,2023-07-01 5:30
피렌체 오피스텔,부산광역시 해운대구청,부산광역시 해운대구,2022-12-31,35.16664955,129.1686157,,2023-07-01 5:30
피시테그,,,,부산 해운대구 중동1로 30 2층,,,
피에스타PC 부산광안점,,,,부산 수영구 광일로 40 지하1층,,,
피올라어린이집,부산광역시 기장군청,부산광역시 기장군,2023-01-01,35.3285936,129.1794251,,2023-07-01 5:30
피플PC방,,,,부산 남구 동명로 137 4층,,,
피플PC방,,,,부산 사상구 가야대로 370 동서빌딩 4층,,,
하나금융어린이집,부산광역시 연제구청,부산광역시 연제구,2022-12-31,35.18648646,129.0826771,,2023-07-01 5:30
하나둘어린이집,부산광역시 연제구청,부산광역시 연제구,2022-12-31,35.19281527,129.0663233,,2023-07-01 5:30
하나병원,부산광역시 사하구청,부산광역시 사하구,2022-12-31,35.07682945,128.9791842,,2023-07-01 5:30
하남몬테소리어린이집,부산광역시 사하구청,부산광역시 사하구,2022-12-31,35.09986622,128.957052,,2023-07-01 5:30
하늘나리어린이집,부산광역시 사상구청,부산광역시 사상구,2022-12-31,35.19059565,128.9948767,,2023-07-01 5:30
하늘성형외과의원,,,,부산 부산진구 서면로 62-1 에이스메디컬타워 3~10층,,,
하늘아이어린이집,부산광역시 해운대구청,부산광역시 해운대구,2022-12-31,35.169342,129.176637,,2023-07-01 5:30
하단어린이집,부산광역시 사하구청,부산광역시 사하구,2022-12-31,35.10391279,128.9650956,,2023-07-01 5:30
하드캐리피씨방,,,,부산 사상구 엄궁북로 6,,,
하모니타워마브러스,부산광역시 해운대구청,부산광역시 해운대구,2022-12-31,35.168895,129.129747,,2023-07-01 5:30
하버타운,부산광역시 해운대구청,부산광역시 해운대구,2022-12-31,35.161569,129.155854,,2023-07-01 5:30
하사랑요양병원,부산광역시 사하구청,부산광역시 사하구,2022-12-31,35.07682945,128.9791842,,2023-07-01 5:30
하서요양원,,,,부산 기장군 정관읍 구연3로 11,,,
학장반도보라프라자,부산광역시 사상구청,부산광역시 사상구,2022-12-31,35.13729145,128.9791721,,2023-07-01 5:30
학장반도아파트상가,부산광역시 사상구청,부산광역시 사상구,2022-12-31,35.13729145,128.9791721,,2023-07-01 5:30
학장성심요양병원,,,,부산 사상구 대동로159번길 9,,,
한국교직원공제회부산회관,부산광역시 동구청,부산광역시 동구,2021-01-21,35.114396,129.039815,,2023-07-01 5:30
한국보훈복지의료공단 부산보훈병원,부산광역시 사상구청,부산광역시 사상구,2022-12-31,35.15289186,129.0082523,,2023-07-01 5:30
한국해양어린이집,부산광역시 영도구청,부산광역시 영도구,2022-12-31,35.07440796,129.0873481,,2023-07-01 5:30
한국환경공단 부산울산경남지역본부,부산광역시 북구청,부산광역시 북구,2022-12-31,35.20145058,129.0004963,,2023-07-01 5:30
한나어린이집,부산광역시 부산진구청,부산진구,2023-01-11,35.1609233,129.0539464,,2023-07-01 5:30
한나여성아이병원,부산광역시 수영구청,부산광역시 수영구,2022-12-31,35.13916897,129.1069807,,2023-07-01 5:30
한나타워,부산광역시 영도구청,부산광역시 영도구,2022-12-31,35.07840832,129.0707917,,2023-07-01 5:30
한누리어린이집,부산광역시 남구청,부산광역시 남구,2023-01-16,129.078052,35.1372758,,2023-07-01 5:30
한독온천어린이집,부산광역시 동래구청,부산광역시 동래구,2022-12-31,35.20743681,129.0631321,,2023-07-01 5:30
한라시그마타워,부산광역시 부산진구청,부산진구,2023-01-11,35.1482163,129.0608864,,2023-07-01 5:30
한마음노인건강센터,부산광역시 기장군청,부산광역시 기장군,2023-01-01,35.2414374,129.2184209,,2023-07-01 5:30
한별어린이집,부산광역시 사상구청,부산광역시 사상구,2022-12-31,35.14618179,129.0052027,,2023-07-01 5:30
한빛병원,,,,부산 연제구 과정로 140 4~10층,,,
한빛병원,,,,부산 연제구 과정로 140 4~10층,,,
한빛어린이집,부산광역시 사상구청,부산광역시 사상구,2022-12-31,35.12553827,128.969887,,2023-07-01 5:30
한빛어린이집,부산광역시 부산진구청,부산진구,2023-01-11,35.1676615,129.02928,,2023-07-01 5:30
한빛어린이집,부산광역시 동래구청,부산광역시 동래구,2022-12-31,35.20074844,129.1033911,,2023-07-01 5:30
한빛어린이집,부산광역시 남구청,부산광역시 남구,2023-01-16,129.0686936,35.13152677,,2023-07-01 5:30
한빛요양병원,부산광역시 사하구청,부산광역시 사하구,2022-12-31,35.09988705,128.9914265,,2023-07-01 5:30
한사랑내과의원,부산광역시 북구청,부산광역시 북구,2022-12-31,35.210886,129.00908,,2023-07-01 5:30
한사랑요양병원 (구.효사랑요양병원),부산광역시 부산진구청,부산진구,2023-01-11,35.1661103,129.0519376,,2023-07-01 5:30
한샘센텀,부산광역시 해운대구청,부산광역시 해운대구,2022-12-31,35.231672,129.151551,,2023-07-01 5:30
한솔어린이집,부산광역시 북구청,부산광역시 북구,2022-12-31,35.21813896,129.0382917,,2023-07-01 5:30
한솔어린이집,부산광역시 기장군청,부산광역시 기장군,2023-01-01,35.2382404,129.215532,,2023-07-01 5:30
한솔탕,부산광역시 사하구청,부산광역시 사하구,2022-12-31,35.09951704,128.9567518,,2023-07-01 5:30
한수원 한빛어린이집,부산광역시 기장군청,부산광역시 기장군,2023-01-01,35.332234,129.283056,,2023-07-01 5:30
한신휴플러스 오피스텔,부산광역시 해운대구청,부산광역시 해운대구,2022-12-31,35.174228,129.126161,,2023-07-01 5:30
한양류마디병원,부산광역시 연제구청,부산광역시 연제구,2022-12-31,35.18827091,129.0977103,,2023-07-01 5:30
한우리요양병원,부산광역시 사하구청,부산광역시 사하구,2022-12-31,35.08628423,129.0057042,,2023-07-01 5:30
한우리요양원,부산광역시 사하구청,부산광역시 사하구,2022-12-31,35.08628423,129.0057042,,2023-07-01 5:30
한웅레포츠,부산광역시 서구청,부산광역시 서구,2022-12-31,35.10541424,129.0210286,,2023-07-01 5:30
한화생명 부산지원단사옥,부산광역시 부산진구청,부산진구,2023-01-11,35.1515394,129.058661,,2023-07-01 5:30
한화생명(주)명륜동사옥,부산광역시 동래구청,부산광역시 동래구,2022-12-31,35.20292779,129.0806552,,2023-07-01 5:30
한화호텔앤드리조트㈜,부산광역시 해운대구청,부산광역시 해운대구,2022-12-31,35.169427,129.174936,,2023-07-01 5:30
해돋이어린이집,부산광역시 영도구청,부산광역시 영도구,2022-12-31,35.09335312,129.0406297,,2023-07-01 5:30
해동병원 별관,부산광역시 영도구청,부산광역시 영도구,2022-12-31,35.09218426,129.0433652,,2023-07-01 5:30
해동병원 본관,부산광역시 영도구청,부산광역시 영도구,2022-12-31,35.09193659,129.0438639,,2023-07-01 5:30
해뜨는어린이집,부산광역시 남구청,부산광역시 남구,2023-01-16,129.112817,35.10845007,,2023-07-01 5:30
해뜨락요양병원,부산광역시 북구청,부산광역시 북구,2022-12-31,35.21036692,129.0447293,,2023-07-01 5:30
해뜨락요양원,부산광역시 북구청,부산광역시 북구,2022-12-31,35.21067154,129.0452178,,2023-07-01 5:30
해바라기어린이집,부산광역시 부산진구청,부산진구,2023-01-11,35.1571185,129.0235693,,2023-07-01 5:30
해변사우나 실내주차장,부산광역시 사하구청,부산광역시 사하구,2022-12-31,35.04986282,128.9652476,,2023-07-01 5:30
해양자연사박물관,부산광역시 동래구청,부산광역시 동래구,2022-12-31,35.22195558,129.0756462,,2023-07-01 5:30
해운대 그린나래호텔,부산광역시 해운대구청,부산광역시 해운대구,2022-12-31,35.175133,129.125056,,2023-07-01 5:30
해운대 라뮤에뜨,부산광역시 해운대구청,부산광역시 해운대구,2022-12-31,35.208445,129.117727,,2023-07-01 5:30
해운대 비치 로데오아울렛 2차 (해운대 상설할인타운),부산광역시 해운대구청,부산광역시 해운대구,2022-12-31,35.17376,129.173282,,2023-07-01 5:30
해운대 오션프라임,부산광역시 해운대구청,부산광역시 해운대구,2022-12-31,35.220692,129.153314,,2023-07-01 5:30
해운대 한빛요양병원,,,,부산 해운대구 반여로 156,,,
해운대NC백화점,부산광역시 해운대구청,부산광역시 해운대구,2022-12-31,35.168867,129.157311,,2023-07-01 5:30
해운대NC백화점,부산광역시 해운대구청,부산광역시 해운대구,2022-12-31,35.173536,129.182194,,2023-07-01 5:30
해운대나눔과행복병원,,,,부산 해운대구 좌동순환로 502 이룸빌딩 3~9층,,,
해운대도서관,부산광역시 해운대구청,부산광역시 해운대구,2022-12-31,35.163603,129.164518,,2023-07-01 5:30
해운대백병원,부산광역시 해운대구청,부산광역시 해운대구,2022-12-31,35.18821,129.129947,,2023-07-01 5:30
해운대백병원 장례식장,부산광역시 해운대구청,부산광역시 해운대구,2022-12-31,35.204626,129.116737,,2023-07-01 5:30
해운대베르나움,부산광역시 해운대구청,부산광역시 해운대구,2022-12-31,35.166124,129.132424,,2023-07-01 5:30
해운대삼정코아상가주차장,부산광역시 해운대구청,부산광역시 해운대구,2022-12-31,35.156224,129.153933,,2023-07-01 5:30
해운대새싹어린이집,,,,부산 해운대구 우동3로 67 1층,,,
해운대성심요양병원,,,,부산 해운대구 좌동순환로 462,,,
해운대실버홈,부산광역시 해운대구청,부산광역시 해운대구,2022-12-31,35.166267,129.180696,,2023-07-01 5:30
해운대역,부산광역시 해운대구청,부산광역시 해운대구,2022-12-31,35.16374,129.187447,,2023-07-01 5:30
해운대온천센터 (주식회사 에이치봄),부산광역시 해운대구청,부산광역시 해운대구,2022-12-31,35.168069,129.146595,,2023-07-01 5:30
해운대제일교회,부산광역시 해운대구청,부산광역시 해운대구,2022-12-31,35.156748,129.141834,,2023-07-01 5:30
해운대폴리어학원,,,,부산 해운대구 센텀2로 29 메커스빌딩 5층,,,
해운대푸르지오시티,부산광역시 해운대구청,부산광역시 해운대구,2022-12-31,35.188474,129.127157,,2023-07-01 5:30
해운대푸른어린이집,,,,부산 해운대구 세실로 7,,,
해피빌요양원(기존 : 인창노인요양원),부산광역시 사하구청,부산광역시 사하구,2022-12-31,35.09359786,128.983366,,2023-07-01 5:30
해피실버타운,부산광역시 남구청,부산광역시 남구,2023-01-16,129.107302,35.12158889,,2023-07-01 5:30
햇님어린이집,부산광역시 사하구청,부산광역시 사하구,2022-12-31,35.10690709,128.9727764,,2023-07-01 5:30
햇살가득한어린이집,부산광역시 북구청,부산광역시 북구,2022-12-31,35.20736759,129.0111088,,2023-07-01 5:30
햇살자연어린이집,부산광역시 부산진구청,부산진구,2023-01-11,35.1514439,129.0459936,,2023-07-01 5:30
행복누리어린이집,부산광역시 동구청,부산광역시 동구,2021-01-21,35.136653,129.06505,,2023-07-01 5:30
행복한그림동산어린이집,부산광역시 금정구청,부산광역시 금정구,2022-12-31,35.214983,129.114512,,2023-07-01 5:30
행복한어린이집,부산광역시 남구청,부산광역시 남구,2023-01-16,129.0925886,35.13625305,,2023-07-01 5:30
허브휴양 한방병원(의료기관종별-한방병원),부산광역시 사하구청,부산광역시 사하구,2022-12-31,35.0993484,128.9643726,,2023-07-01 5:30
허심청,부산광역시 동래구청,부산광역시 동래구,2022-12-31,35.22115359,129.0826876,,2023-07-01 5:30
허심청,부산광역시 동래구청,부산광역시 동래구,2022-12-31,35.22115359,129.0826876,,2023-07-01 5:30
현대미술관,부산광역시 사하구청,부산광역시 사하구,2022-12-31,35.10927201,128.9427482,,2023-07-01 5:30
현대백화점 부산점,부산광역시 동구청,부산광역시 동구,2021-01-21,35.141309,129.058623,,2023-07-01 5:30
현대백화점 부산점,부산광역시 동구청,부산광역시 동구,2021-01-21,35.141362,129.058676,,2023-07-01 5:30
현대어린이집,부산광역시 동래구청,부산광역시 동래구,2022-12-31,35.20731302,129.0831735,,2023-07-01 5:30
현대요양병원,부산광역시 사하구청,부산광역시 사하구,2022-12-31,35.07970831,128.964163,,2023-07-01 5:30
현대요양병원,부산광역시 기장군청,부산광역시 기장군,2023-01-01,35.2487384,129.2100607,,2023-07-01 5:30
현대해상 부산사옥,부산광역시 동구청,부산광역시 동구,2021-01-21,35.118378,129.041913,,2023-07-01 5:30
현대해상온마음 어린이집,부산광역시 동구청,부산광역시 동구,2021-01-21,35.19705,129.061078,,2023-07-01 5:30
혜화어린이집,부산광역시 동래구청,부산광역시 동래구,2022-12-31,35.20226213,129.1132952,,2023-07-01 5:30
호메르스관광호텔,부산광역시 수영구청,부산광역시 수영구,2022-12-31,35.15342694,129.1179846,,2023-07-01 5:30
호산기독요양병원,부산광역시 연제구청,부산광역시 연제구,2022-12-31,35.18402591,129.0664169,,2023-07-01 5:30
호산나교회,부산광역시 강서구청,강서구,2022-12-22,35.08462,128.90481,,2023-07-01 5:30
호산나어린이집,부산광역시 남구청,부산광역시 남구,2023-01-16,129.1112703,35.12296771,,2023-07-01 5:30
호산노인건강센터,부산광역시 연제구청,부산광역시 연제구,2022-12-31,35.18369456,129.0661711,,2023-07-01 5:30
호텔아쿠아펠리스,부산광역시 수영구청,부산광역시 수영구,2022-12-31,35.15413134,129.1188174,,2023-07-01 5:30
홈플러스 부산반여점,부산광역시 해운대구청,부산광역시 해운대구,2022-12-31,35.165248,129.174935,,2023-07-01 5:30
홈플러스 부산정관점,부산광역시 기장군청,부산광역시 기장군,2023-01-01,35.3230993,129.1763385,,2023-07-01 5:30
홈플러스 부산정관점,부산광역시 기장군청,부산광역시 기장군,2023-01-01,35.3230993,129.1763385,,2023-07-01 5:30
홈플러스 센텀시티점,부산광역시 해운대구청,부산광역시 해운대구,2022-12-31,35.170832,129.177112,,2023-07-01 5:30
홈플러스 센텀시티점,부산광역시 해운대구청,부산광역시 해운대구,2022-12-31,35.178165,129.177742,,2023-07-01 5:30
홈플러스 스토어즈 서면점,부산광역시 부산진구청,부산진구,2023-01-11,35.1495471,129.0648567,,2023-07-01 5:30
홈플러스 해운대점,부산광역시 해운대구청,부산광역시 해운대구,2022-12-31,35.16618,129.169002,,2023-07-01 5:30
홈플러스(실내주차장),부산광역시 사상구청,부산광역시 사상구,2022-12-31,35.16433608,128.9777161,,2023-07-01 5:30
홈플러스(주) 동래점,부산광역시 동래구청,부산광역시 동래구,2022-12-31,35.22128992,129.0855783,,2023-07-01 5:30
홈플러스(주) 동래점,부산광역시 동래구청,부산광역시 동래구,2022-12-31,35.22128992,129.0855783,,2023-07-01 5:30
홈플러스(주)서부산점,부산광역시 사상구청,부산광역시 사상구,2022-12-31,35.16433608,128.9777161,,2023-07-01 5:30
홈플러스아시아드점,부산광역시 연제구청,부산광역시 연제구,2022-12-31,35.19126678,129.0620097,,2023-07-01 5:30
홈플러스아시아드점,부산광역시 연제구청,부산광역시 연제구,2022-12-31,35.19126678,129.0620097,,2023-07-01 5:30
홈플러스연산점,부산광역시 연제구청,부산광역시 연제구,2022-12-31,35.19096064,129.0893357,,2023-07-01 5:30
홈플러스연산점,부산광역시 연제구청,부산광역시 연제구,2022-12-31,35.19096064,129.0893357,,2023-07-01 5:30
홈플러스㈜ 부산감만점,부산광역시 남구청,부산광역시 남구,2023-01-16,129.0822116,35.12159947,,2023-07-01 5:30
홈플러스테스코(주) 서면점,부산광역시 부산진구청,부산진구,2023-01-11,35.1495471,129.0648567,,2023-07-01 5:30
홈플러스테스코㈜ 장림점,부산광역시 사하구청,부산광역시 사하구,2022-12-31,35.08243474,128.9782534,,2023-07-01 5:30
홈플러스테스코㈜ 장림점 실내주차장,부산광역시 사하구청,부산광역시 사하구,2022-12-31,35.08243474,128.9782534,,2023-07-01 5:30
